~Version ---------------------------------------------------
VERS.   2.0 : CWLS log ASCII Standard -VERSION 2.0
WRAP.    NO : One line per depth step
DLM . SPACE : Column Data Section Delimiter
~Well ------------------------------------------------------
STRT.m           3500.0183 : START DEPTH
STOP.m           4124.8583 : STOP DEPTH
STEP.m 0.15239999999994325 : STEP
NULL.             -9999.25 : NULL VALUE
COMP.                      : COMPANY
WELL.          Random Well : 
FLD .         Random Field : 
LOC .                      : LOCATION
PROV.                      : PROVINCE
CNTY.                      : COUNTY
STAT.                      : STATE
CTRY.                      : COUNTRY
SRVC.                      : SERVICE COMPANY
DATE.                      : DATE
UWI .             12345678 : 
API .                      : API NUMBER
~Curve Information -----------------------------------------
DEPT    .m            : 
CALI    .inches       : 
COAL    .unitless     : 
DT      .us/ft        : 
DT_LOG  .us/ft        : 
DTS     .us/ft        : 
DTS_LOG .us/ft        : 
GR      .API          : 
NPHI    .v/v_decimal  : 
PHIE    .v/v_decimal  : 
PHIEC   .v/v_decimal  : 
PHIT    .v/v_decimal  : 
PHITC   .v/v_decimal  : 
RHOB    .g/cm3        : 
RHOB_LOG.g/cm3        : 
RT      .ohm.m        : 
RW      .ohm.m        : 
TEMP    .degC         : 
~Params ----------------------------------------------------
~Other -----------------------------------------------------
~ASCII -----------------------------------------------------
# ...
 3812.43830    8.81300    0.00000   84.67320   84.67320  144.66790  144.66790   39.12800    0.22790    0.08940    0.08940    0.12070    0.12070    2.45990    2.46000    0.97300    0.01960  103.26770
 3812.59070    8.80700    0.00000   85.05600   85.05600  144.46800  144.46800   37.60900    0.26620    0.07850    0.07850    0.10730    0.10730    2.48090    2.48100    1.01800    0.01960  103.27190
 3812.74310    8.80700    0.00000   85.02680   85.02680  144.55210  144.55210   36.32800    0.20620    0.12290    0.12160    0.14710    0.14580    2.41820    2.41800    1.03900    0.01960  103.27610
 3812.89550    8.84900    0.00000   84.52670   84.52670  144.78690  144.78690   40.77300    0.22440    0.12800    0.12520    0.15490    0.15200    2.40600    2.40600    1.06200    0.01960  103.28040
 3813.04790    9.05300    0.00000   83.77870   83.77870  144.52320  144.52320   32.07000    0.19020    0.11880    0.11830    0.13910    0.13860    2.43090    2.43100    1.10500    0.01960  103.28460
 3813.20030    9.05300    0.00000   83.15590   83.15590  145.06960  145.06960   34.17500    0.20390    0.13380    0.13060    0.15550    0.15220    2.40510    2.40500    1.13200    0.01960  103.28880
 3813.35270    9.10700    0.00000   82.88400   82.88400  144.03070  144.03070   36.79700    0.22120    0.11630    0.11450    0.14410    0.14230    2.42290    2.42300    1.11500    0.01960  103.29310
 3813.50510    9.10700    0.00000   82.85300   82.85300  143.15600  143.15600   35.47500    0.22780    0.07220    0.07220    0.09790    0.09790    2.49570    2.49600    1.09200    0.01960  103.29730
 3813.65750    9.24600    0.00000   82.76990   82.76990  143.22540  143.22540   32.60600    0.28650    0.01580    0.01580    0.03710    0.03710    2.59160    2.59200    1.08700    0.01960  103.30150
 3813.80990    9.30000    0.00000   82.46380   82.46380  144.27350  144.27350   29.30000    0.25380    0.02510    0.02510    0.04120    0.04120    2.58500    2.58500    1.10000    0.01960  103.30580
 3813.96230    9.51600    0.00000   81.97680   81.97680  145.70270  145.70270   32.08400    0.32600    0.01000    0.01000    0.01000    0.01000    2.69460    2.69500    1.13800    0.01960  103.31000
 3814.11470    9.57000    0.00000   81.41470   81.41470  147.46360  147.46360   33.04700    0.27410    0.06810    0.06810    0.09030    0.09030    2.50770    2.50700    1.21000    0.01960  103.31420
 3814.26710    9.63600    0.00000   80.83670   80.83670  149.01250  149.01250   36.33800    0.29750    0.02420    0.02420    0.05160    0.05160    2.56880    2.56900    1.30700    0.01960  103.31850
 3814.41950    9.71400    0.00000   80.26380   80.26380  150.31320  150.31320   45.66600    0.28670    0.01000    0.01000    0.01000    0.01000    2.69150    2.69200    1.40900    0.01960  103.32270
 3814.57190    9.70200    0.00000   79.75490   79.75490  150.76480  150.76480   52.52700    0.31610    0.01000    0.01000    0.05550    0.05550    2.56250    2.56200    1.51500    0.01960  103.32700
 3814.72430    9.69000    0.00000   79.51010   79.51010  150.22540  150.22540   53.99800    0.36750    0.01000    0.01000    0.01000    0.01000    2.76220    2.76300    1.62100    0.01960  103.33120
 3814.87670    9.62390    0.00000   79.72050   79.72050  151.38620  151.38620   51.05250    0.35440    0.01000    0.01000    0.01000    0.01000    2.83730    2.83760    1.69200    0.01960  103.33540
 3815.02910    9.61200    0.00000   80.25720   80.25720  151.84570  151.84570   52.61500    0.32100    0.01000    0.01000    0.01000    0.01000    2.63480    2.63400    1.69600    0.01960  103.33970
 3815.18150    9.62400    0.00000   80.76400   80.76400  153.58110  153.58110   59.00500    0.41240    0.01000    0.01000    0.01000    0.01000    2.82820    2.82900    1.64800    0.01960  103.34390
 3815.33390    9.62400    0.00000   80.80370   80.80370  151.27540  151.27540   61.00300    0.40160    0.01000    0.01000    0.01000    0.01000    2.78620    2.78600    1.59500    0.01960  103.34810
 3815.48630    9.58800    0.00000   80.15150   80.15150  149.78150  149.78150   48.52700    0.37140    0.01000    0.01000    0.01000    0.01000    2.74620    2.74600    1.57200    0.01960  103.35240
 3815.63870    9.69600    0.00000   79.05460   79.05460  148.56190  148.56190   40.96800    0.35540    0.01000    0.01000    0.01000    0.01000    2.85060    2.85100    1.59100    0.01960  103.35660
 3815.79110    9.72600    0.00000   78.03470   78.03470  148.30380  148.30380   32.79900    0.43460    0.01000    0.01000    0.01000    0.01000    2.86690    2.86700    1.64800    0.01960  103.36080
 3815.94350    9.73900    0.00000   77.37290   77.37290  147.64740  147.64740   32.23400    0.36970    0.01000    0.01000    0.01000    0.01000    3.01940    3.02000    1.71300    0.01960  103.36510
 3816.09590    9.69000    0.00000   77.03900   77.03900  146.07440  146.07440   39.81100    0.36590    0.01000    0.01000    0.01000    0.01000    2.77700    2.77600    1.74100    0.01960  103.36930
 3816.24830    9.68400    0.00000   76.93610   76.93610  144.56560  144.56560   41.47600    0.42340    0.01000    0.01000    0.01000    0.01000    2.71130    2.71100    1.71100    0.01960  103.37350
 3816.40070    9.57000    0.00000   77.05820   77.05820  143.54410  143.54410   46.77800    0.29390    0.01000    0.01000    0.01000    0.01000    2.89230    2.89300    1.63400    0.01960  103.37780
 3816.55310    9.54000    0.00000   77.60350   77.60350  143.76890  143.76890   43.39900    0.32900    0.03550    0.03550    0.07020    0.07020    2.53940    2.53800    1.53900    0.01960  103.38200
 3816.70550    9.54000    0.00000   78.76370   78.76370  143.54480  143.54480   42.68600    0.36610    0.06870    0.06870    0.10210    0.10210    2.48920    2.48900    1.46900    0.01960  103.38620
 3816.85790    9.53400    0.00000   80.31960   80.31960  142.97380  142.97380   39.56600    0.31120    0.01000    0.01000    0.01000    0.01000    2.69620    2.69700    1.46900    0.01960  103.39050
 3817.01030    9.57600    0.00000   81.67920   81.67920  142.47400  142.47400   37.74600    0.29430    0.01000    0.01000    0.01000    0.01000    2.71490    2.71500    1.54300    0.01960  103.39470
 3817.16270    9.55200    0.00000   82.21570   82.21570  142.48520  142.48520   35.40500    0.32130    0.01000    0.01000    0.02960    0.02960    2.60340    2.60300    1.61800    0.01960  103.39900
 3817.31510    9.54000    0.00000   81.60840   81.60840  142.96490  142.96490   37.84000    0.32930    0.01000    0.01000    0.01000    0.01000    2.74440    2.74500    1.60300    0.01960  103.40320
 3817.46750    9.67200    0.00000   80.15330   80.15330  142.62260  142.62260   36.52400    0.32490    0.03340    0.03340    0.05730    0.05730    2.55970    2.55900    1.53600    0.01960  103.40740
 3817.61990    9.70200    0.00000   78.61550   78.61550  141.47740  141.47740   34.31600    0.28210    0.02610    0.02610    0.04700    0.04700    2.57590    2.57600    1.50500    0.01960  103.41170
 3817.77230    9.66600    0.00000   77.55470   77.55470  140.01180  140.01180   28.55900    0.32020    0.01000    0.01000    0.01000    0.01000    2.63650    2.63670    1.50600    0.01960  103.41590
 3817.92470    9.71400    0.00000   76.97380   76.97380  139.47320  139.47320   34.37800    0.27690    0.03860    0.03860    0.05920    0.05920    2.55670    2.55640    1.48700    0.01960  103.42010
 3818.07710    9.75100    0.00000   76.61790   76.61790  139.94540  139.94540   37.96400    0.29400    0.10180    0.10040    0.12670    0.12530    2.45040    2.45000    1.43300    0.01960  103.42440
 3818.22950    9.73900    0.00000   76.45910   76.45910  140.93370  140.93370   40.05100    0.30810    0.04910    0.04910    0.07640    0.07640    2.52970    2.53000    1.38000    0.01960  103.42860
 3818.38190    9.70800    0.00000   76.78040   76.78040  142.74680  142.74680   50.49000    0.26780    0.01000    0.01000    0.03630    0.03630    2.59280    2.59300    1.35100    0.01960  103.43280
 3818.53430    9.73300    0.00000   77.75760   77.75760  144.83990  144.83990   52.99900    0.23490    0.02910    0.02910    0.07160    0.07160    2.53720    2.53700    1.34300    0.01960  103.43710
