~Version ---------------------------------------------------
VERS.   2.0 : CWLS log ASCII Standard -VERSION 2.0
WRAP.    NO : One line per depth step
DLM . SPACE : Column Data Section Delimiter
~Well ------------------------------------------------------
STRT.m           3500.0183 : START DEPTH
STOP.m           4124.8583 : STOP DEPTH
STEP.m 0.15239999999994325 : STEP
NULL.             -9999.25 : NULL VALUE
COMP.                      : COMPANY
WELL.          Random Well : 
FLD .         Random Field : 
LOC .                      : LOCATION
PROV.                      : PROVINCE
CNTY.                      : COUNTY
STAT.                      : STATE
CTRY.                      : COUNTRY
SRVC.                      : SERVICE COMPANY
DATE.                      : DATE
UWI .             12345678 : 
API .                      : API NUMBER
~Curve Information -----------------------------------------
DEPT    .m            : 
CALI    .inches       : 
COAL    .unitless     : 
DT      .us/ft        : 
DT_LOG  .us/ft        : 
DTS     .us/ft        : 
DTS_LOG .us/ft        : 
GR      .API          : 
NPHI    .v/v_decimal  : 
PHIE    .v/v_decimal  : 
PHIEC   .v/v_decimal  : 
PHIT    .v/v_decimal  : 
PHITC   .v/v_decimal  : 
RHOB    .g/cm3        : 
RHOB_LOG.g/cm3        : 
RT      .ohm.m        : 
RW      .ohm.m        : 
TEMP    .degC         : 
~Params ----------------------------------------------------
~Other -----------------------------------------------------
~ASCII -----------------------------------------------------
# ...
 3693.71870    9.68400    0.00000  124.44460  124.44460  252.79600  252.79600  215.01700    0.44710    0.01000    0.01000    0.24660    0.24620    2.26200    2.26200    2.88100    0.02010   99.96840
 3693.87110    9.67800    0.00000  123.51330  123.51330  252.83440  252.83440  221.19900    0.46940    0.01000    0.01000    0.24030    0.23990    2.27200    2.27200    2.86300    0.02010   99.97270
 3694.02350    9.75100    0.00000  122.02210  122.02210  253.67820  253.67820  184.92000    0.54900    0.01000    0.01000    0.01000    0.01000    2.68040    2.68200    2.70700    0.02010   99.97690
 3694.17590    9.73900    0.00000  120.06700  120.06700  253.99530  253.99530  183.13000    0.43860    0.01000    0.01000    0.05250    0.05230    2.56750    2.56700    2.38100    0.02010   99.98110
 3694.32830    9.76300    0.00000  117.85100  117.85100  254.63980  254.63980  181.72800    0.55280    0.01000    0.01000    0.15150    0.15150    2.41160    2.41100    1.92300    0.02010   99.98540
 3694.48070    9.79900    0.00000  115.57000  115.57000  256.08630  256.08630  179.39200    0.30840    0.01180    0.01180    0.19500    0.19500    2.34330    2.34300    1.46700    0.02010   99.98960
 3694.63310    9.84700    0.00000  113.38820  113.38820  258.60480  258.60480  179.55500    0.49790    0.01000    0.01000    0.20020    0.20020    2.33500    2.33500    1.13300    0.02010   99.99390
 3694.78550   10.02100    0.00000  111.47740  111.47740  260.15950  260.15950  174.71600    0.47280    0.01000    0.01000    0.20970    0.20970    2.32010    2.32000    0.95300    0.02010   99.99810
 3694.93790   10.08100    0.00000  110.07270  110.07270  261.03050  261.03050  147.27800    0.49560    0.01000    0.01000    0.20150    0.20150    2.33290    2.33300    0.91400    0.02010  100.00230
 3695.09030    9.97900    0.00000  109.42910  109.42910  261.94920  261.94920  151.88000    0.39620    0.01000    0.01000    0.21160    0.21160    2.31710    2.31700    1.00800    0.02010  100.00660
 3695.24270    9.99700    0.00000  109.69850  109.69850  262.43410  262.43410  154.78400    0.52930    0.01000    0.01000    0.18700    0.18700    2.35580    2.35600    1.23300    0.02010  100.01080
 3695.39510   10.00900    0.00000  110.84780  110.84780  262.62020  262.62020  147.74000    0.43230    0.04880    0.04880    0.25590    0.25590    2.24740    2.24700    1.56400    0.02010  100.01500
 3695.54750    9.57600    0.00000  112.69900  112.69900  261.12140  261.12140  156.73300    0.38240    0.02160    0.02160    0.24090    0.24090    2.27090    2.27100    1.89900    0.02010  100.01930
 3695.69990    9.58200    0.00000  114.96100  114.96100  261.81400  261.81400  168.46400    0.46450    0.01000    0.01000    0.24030    0.24030    2.27200    2.27200    2.10700    0.02010  100.02350
 3695.85230    9.54000    0.00000  117.30300  117.30300  261.83220  261.83220  170.86400    0.48350    0.01290    0.01290    0.25860    0.25860    2.24310    2.24300    2.16600    0.02010  100.02770
 3696.00470    9.57000    0.00000  119.51290  119.51290  260.35660  260.35660  186.75700    0.44930    0.01000    0.01000    0.26560    0.26560    2.23200    2.23200    2.16500    0.02010  100.03200
 3696.15710    9.59400    0.00000  121.50270  121.50270  259.55760  259.55760  189.27600    0.32220    0.17620    0.16120    0.28090    0.26580    2.20810    2.20800    2.18300    0.02010  100.03620
 3696.30950    9.60000    0.00000  123.20560  123.20560  258.88620  258.88620  181.37000    0.46140    0.01000    0.01000    0.27140    0.27140    2.22290    2.22300    2.23200    0.02010  100.04040
 3696.46190    9.58800    0.00000  124.51230  124.51230  261.17970  261.17970  195.90200    0.35270    0.12280    0.11440    0.27270    0.26420    2.22100    2.22100    2.29200    0.02010  100.04470
 3696.61430    9.57000    0.00000  125.27410  125.27410  260.61100  260.61100  199.33000    0.43600    0.02630    0.02580    0.27330    0.27280    2.22000    2.22000    2.35300    0.02010  100.04890
 3696.76670    9.57600    0.00000  125.47800  125.47800  256.77350  256.77350  203.24600    0.56920    0.01000    0.01000    0.26760    0.26740    2.22900    2.22900    2.40300    0.02010  100.05310
 3696.91910    9.59400    0.00000  125.39900  125.39900  257.73140  257.73140  192.47700    0.40330    0.01320    0.01320    0.24920    0.24920    2.25790    2.25800    2.43200    0.02010  100.05740
 3697.07150    9.57600    0.00000  125.41210  125.41210  258.59010  258.59010  188.58500    0.50010    0.01000    0.01000    0.25610    0.25590    2.24700    2.24700    2.44700    0.02010  100.06160
 3697.22390    9.58800    0.00000  125.63810  125.63810  260.82080  260.82080  190.42900    0.47820    0.01000    0.01000    0.26880    0.26860    2.22710    2.22700    2.46700    0.02010  100.06590
 3697.37630    9.58810    0.00000  125.93410  125.93410  260.38720  260.38720  184.85390    0.44510    0.01450    0.01430    0.27320    0.27300    2.22010    2.22010    2.48690    0.02010  100.07010
 3697.52870    9.59400    0.00000  126.14710  126.14710  258.89450  258.89450  182.66500    0.44550    0.01000    0.01000    0.26630    0.26620    2.23100    2.23100    2.47400    0.02010  100.07430
 3697.68110    9.61800    0.00000  126.29210  126.29210  257.89290  257.89290  194.61100    0.56670    0.01000    0.01000    0.26500    0.26480    2.23300    2.23300    2.41800    0.02010  100.07860
 3697.83350    9.60600    0.00000  126.48610  126.48610  257.64780  257.64780  192.64400    0.46670    0.01000    0.01000    0.21250    0.21230    2.31570    2.31600    2.33000    0.02010  100.08280
 3697.98590    9.61200    0.00000  126.75110  126.75110  257.24460  257.24460  200.58400    0.36130    0.01440    0.01440    0.22680    0.22680    2.29310    2.29300    2.22300    0.02010  100.08700
 3698.13830    9.41400    0.00000  126.94500  126.94500  256.55650  256.55650  209.55700    0.45510    0.01000    0.01000    0.25100    0.25080    2.25520    2.25500    2.10500    0.02010  100.09130
 3698.29070    9.37200    0.00000  126.98400  126.98400  255.57240  255.57240  203.67900    0.59600    0.01000    0.01000    0.25230    0.25230    2.25300    2.25300    1.99000    0.02010  100.09550
 3698.44310    9.37200    0.00000  126.88090  126.88090  256.37980  256.37980  214.45800    0.38840    0.06300    0.06160    0.26500    0.26360    2.23310    2.23300    1.88300    0.02010  100.09970
 3698.59550    9.42600    0.00000  126.54780  126.54780  259.79090  259.79090  214.46100    0.59200    0.01000    0.01000    0.27580    0.27580    2.21610    2.21600    1.77400    0.02010  100.10400
 3698.74790    9.46800    0.00000  126.04080  126.04080  263.48290  263.48290  215.75700    0.40340    0.06810    0.06660    0.27580    0.27430    2.21600    2.21600    1.65600    0.02010  100.10820
 3698.90030    9.47400    0.00000  125.50280  125.50280  265.20120  265.20120  226.02200    0.44290    0.02390    0.02390    0.27710    0.27710    2.21400    2.21400    1.52300    0.02010  100.11240
 3699.05270    9.66600    0.00000  124.97370  124.97370  265.68910  265.68910  225.22200    0.60680    0.01000    0.01000    0.21820    0.21820    2.30660    2.30700    1.37800    0.02010  100.11670
 3699.20510    9.74500    0.00000  124.38870  124.38870  265.96700  265.96700  207.54400    0.55350    0.01000    0.01000    0.20470    0.20470    2.32790    2.32800    1.23600    0.02010  100.12090
 3699.35750    9.99100    0.00000  123.72870  123.72870  267.88050  267.88050  190.83600    0.52120    0.01000    0.01000    0.28190    0.28190    2.20650    2.20600    1.12900    0.02010  100.12510
 3699.50990   10.03900    0.00000  123.14090  123.14090  268.87010  268.87010  193.12500    0.47840    0.01000    0.01000    0.25690    0.25690    2.24580    2.24600    1.08100    0.02010  100.12940
 3699.66230    9.27600    0.00000  122.89410  122.89410  269.08730  269.08730  184.36000    0.33840    0.14730    0.14170    0.27700    0.27140    2.21410    2.21400    1.09800    0.02010  100.13360
 3699.81470    9.10100    0.00000  123.17630  123.17630  265.84340  265.84340  186.46400    0.57350    0.01000    0.01000    0.26380    0.26380    2.23490    2.23500    1.17900    0.02010  100.13790
