~Version ---------------------------------------------------
VERS.   2.0 : CWLS log ASCII Standard -VERSION 2.0
WRAP.    NO : One line per depth step
DLM . SPACE : Column Data Section Delimiter
~Well ------------------------------------------------------
STRT.m           3500.0183 : START DEPTH
STOP.m           4124.8583 : STOP DEPTH
STEP.m 0.15239999999994325 : STEP
NULL.             -9999.25 : NULL VALUE
COMP.                      : COMPANY
WELL.          Random Well : 
FLD .         Random Field : 
LOC .                      : LOCATION
PROV.                      : PROVINCE
CNTY.                      : COUNTY
STAT.                      : STATE
CTRY.                      : COUNTRY
SRVC.                      : SERVICE COMPANY
DATE.                      : DATE
UWI .             12345678 : 
API .                      : API NUMBER
~Curve Information -----------------------------------------
DEPT    .m            : 
CALI    .inches       : 
COAL    .unitless     : 
DT      .us/ft        : 
DT_LOG  .us/ft        : 
DTS     .us/ft        : 
DTS_LOG .us/ft        : 
GR      .API          : 
NPHI    .v/v_decimal  : 
PHIE    .v/v_decimal  : 
PHIEC   .v/v_decimal  : 
PHIT    .v/v_decimal  : 
PHITC   .v/v_decimal  : 
RHOB    .g/cm3        : 
RHOB_LOG.g/cm3        : 
RT      .ohm.m        : 
RW      .ohm.m        : 
TEMP    .degC         : 
~Params ----------------------------------------------------
~Other -----------------------------------------------------
~ASCII -----------------------------------------------------
# ...
 3849.92870    8.24700    0.00000   85.67080   85.67080  132.91180  132.91180   33.26500    0.20930    0.17210    0.17210    0.18110    0.18110    2.32280    2.32300   12.45700    0.01940  104.30950
 3850.08110    8.28400    0.00000   85.21890   85.21890  135.32890  135.32890   34.20800    0.20300    0.02860    0.02860    0.03870    0.03870    2.58890    2.59000   13.03100    0.01940  104.31380
 3850.23350    8.26500    0.00000   84.98000   84.98000  138.15310  138.15310   33.98700    0.18140    0.01000    0.01000    0.01000    0.01000    2.64480    2.64500   14.49400    0.01940  104.31800
 3850.38590    8.23500    0.00000   84.89690   84.89690  141.47200  141.47200   32.26800    0.15550    0.07770    0.07040    0.08530    0.07810    2.51550    2.51500   15.46400    0.01940  104.32220
 3850.53830    8.28400    0.00000   84.76690   84.76690  144.43220  144.43220   37.43100    0.14960    0.18050    0.18050    0.18050    0.18050    2.32020    2.31950   15.33100    0.01940  104.32650
 3850.69070    8.28400    0.00000   84.61600   84.61600  148.15920  148.15920   38.21400    0.19900    0.21240    0.21240    0.21240    0.21240    2.26020    2.26000   14.69800    0.01940  104.33070
 3850.84310    8.30800    0.00000   84.72420   84.72420  151.76050  151.76050   36.54700    0.22080    0.22820    0.22820    0.22850    0.22850    2.23010    2.23000   14.02600    0.01940  104.33490
 3850.99550    8.30200    0.00000   85.22830   85.22830  153.33520  153.33520   36.42500    0.22890    0.23760    0.23760    0.23760    0.23760    2.21310    2.21300   13.39600    0.01940  104.33920
 3851.14790    8.30800    0.00000   85.95130   85.95130  153.98960  153.98960   34.86000    0.24290    0.23940    0.23940    0.24130    0.24130    2.20700    2.20700   12.76300    0.01940  104.34340
 3851.30030    8.29000    0.00000   86.62520   86.62520  152.79720  152.79720   38.11600    0.24080    0.21300    0.21300    0.21950    0.21950    2.24980    2.25000   12.00100    0.01940  104.34760
 3851.45270    8.24100    0.00000   87.03200   87.03200  150.50130  150.50130   36.75600    0.23080    0.21850    0.21850    0.22240    0.22240    2.24400    2.24400   11.42600    0.01940  104.35190
 3851.60510    8.25900    0.00000   87.06290   87.06290  148.41860  148.41860   41.51500    0.22070    0.22390    0.22390    0.22500    0.22500    2.23800    2.23800   11.68200    0.01940  104.35610
 3851.75750    8.27100    0.00000   86.77580   86.77580  147.26360  147.26360   36.17000    0.23320    0.23340    0.23340    0.23470    0.23470    2.21910    2.21900   13.07400    0.01940  104.36030
 3851.90990    8.26500    0.00000   86.30880   86.30880  145.94670  145.94670   37.42900    0.24630    0.22570    0.22570    0.23060    0.23060    2.22700    2.22700   15.27800    0.01940  104.36460
 3852.06230    8.27100    0.00000   85.80880   85.80880  144.90090  144.90090   40.96700    0.24430    0.21560    0.21560    0.22200    0.22200    2.24290    2.24300   17.39800    0.01940  104.36880
 3852.21470    8.24700    0.00000   85.42690   85.42690  144.49260  144.49260   40.29500    0.21770    0.18150    0.18150    0.18990    0.18990    2.30380    2.30400   18.71700    0.01940  104.37300
 3852.36710    8.26500    0.00000   85.17090   85.17090  143.33360  143.33360   33.92300    0.19640    0.19550    0.19550    0.19770    0.19770    2.28710    2.28700   19.47500    0.01940  104.37730
 3852.51950    8.23500    0.00000   84.88080   84.88080  142.28850  142.28850   33.70600    0.20500    0.19770    0.19770    0.20090    0.20090    2.28100    2.28100   20.55100    0.01940  104.38150
 3852.67190    8.22300    0.00000   84.49190   84.49190  140.73300  140.73300   35.37300    0.19730    0.21350    0.21350    0.21350    0.21350    2.25610    2.25600   21.77600    0.01940  104.38580
 3852.82430    8.24100    0.00000   84.16800   84.16800  140.74170  140.74170   34.43700    0.20620    0.21740    0.21740    0.21740    0.21740    2.24900    2.24900   20.23600    0.01940  104.39000
 3852.97670    8.25900    0.00000   84.09610   84.09610  139.87450  139.87450   33.22900    0.21230    0.21380    0.21380    0.21540    0.21540    2.25500    2.25500   14.76200    0.01940  104.39420
 3853.12910    8.30200    0.00000   84.23400   84.23400  138.21550  138.21550   37.53900    0.21180    0.20160    0.20160    0.20570    0.20570    2.27690    2.27700    9.41700    0.01940  104.39850
 3853.28150    8.32000    0.00000   84.20670   84.20670  136.80810  136.80810   38.67400    0.20500    0.19120    0.19120    0.19640    0.19640    2.29790    2.29800    6.22700    0.01940  104.40270
 3853.43390    8.35000    0.00000   83.43720   83.43720  134.15430  134.15430   41.90300    0.19830    0.16960    0.16960    0.17800    0.17800    2.33590    2.33600    4.80100    0.01940  104.40690
 3853.58630    8.38000    0.00000   81.50860   81.50860  132.01480  132.01480   39.17500    0.20600    0.16900    0.16900    0.17890    0.17890    2.33500    2.33500    4.57300    0.01940  104.41120
 3853.73870    8.38600    0.00000   78.42530   78.42530  128.23740  128.23740   39.49300    0.23300    0.12670    0.12670    0.14220    0.14220    2.40370    2.40400    5.32500    0.01940  104.41540
 3853.89110    8.47600    0.00000   74.56620   74.56620  126.38120  126.38120   39.07700    0.21330    0.07270    0.06830    0.08770    0.08320    2.51180    2.51220    7.14200    0.01940  104.41960
 3854.04350    8.50600    0.00000   70.46830   70.46830  123.85620  123.85620   35.20300    0.14490    0.04200    0.04140    0.05220    0.05150    2.56780    2.56800   10.47200    0.01940  104.42390
 3854.19590    8.56600    0.00000   66.59750   66.59750  121.48970  121.48970   32.95800    0.15210    0.01000    0.01000    0.01000    0.01000    2.69750    2.69800   15.96000    0.01940  104.42810
 3854.34830    8.57200    0.00000   63.27390   63.27390  117.42170  117.42170   30.88200    0.06420    0.01000    0.01000    0.01000    0.01000    2.69500    2.69500   21.09500    0.01940  104.43230
 3854.50070    8.58980    0.00000   60.81800   60.81800  116.49890  116.49890   33.95740    0.06780    0.01000    0.01000    0.01000    0.01000    2.70700    2.70700   19.11400    0.01940  104.43660
 3854.65310    8.55400    0.00000   59.57390   59.57390  119.33520  119.33520   35.93800    0.07460    0.01000    0.01000    0.01000    0.01000    2.71300    2.71300   14.16800    0.01940  104.44080
 3854.80550    8.44000    0.00000   59.38820   59.38820  122.88760  122.88760   43.50300    0.11260    0.01000    0.01000    0.01000    0.01000    2.71800    2.71800   11.46600    0.01940  104.44500
 3854.95790    8.39800    0.00000   59.94360   59.94360  124.59260  124.59260   56.39500    0.14210    0.02670    0.02610    0.05170    0.05110    2.56860    2.56800   10.69500    0.01940  104.44930
 3855.11030    8.35600    0.00000   61.36180   61.36180  123.38710  123.38710   61.63800    0.10990    0.16130    0.16130    0.16130    0.16130    2.35880    2.35800   10.51600    0.01940  104.45350
 3855.26270    8.35000    0.00000   63.14270   63.14270  120.61080  120.61080   56.28800    0.18480    0.18410    0.18410    0.18690    0.18690    2.31120    2.31100   10.50800    0.01940  104.45780
 3855.41510    8.36200    0.00000   64.65450   64.65450  120.08840  120.08840   55.46900    0.20400    0.12320    0.12320    0.14060    0.14060    2.40160    2.40200   11.39200    0.01940  104.46200
 3855.56750    8.38600    0.00000   65.78940   65.78940  121.18320  121.18320   49.18000    0.16100    0.02080    0.02000    0.04930    0.04850    2.57230    2.57300   13.83200    0.01940  104.46620
 3855.71990    8.40400    0.00000   66.75540   66.75540  121.67820  121.67820   46.67400    0.09270    0.01000    0.01000    0.01030    0.01030    2.63380    2.63400   17.67000    0.01940  104.47050
 3855.87230    8.44600    0.00000   67.59520   67.59520  122.43800  122.43800   37.39400    0.08530    0.01000    0.01000    0.01000    0.01000    2.72070    2.72100   21.10400    0.01940  104.47470
 3856.02470    8.47000    0.00000   68.13310   68.13310  125.61710  125.61710   35.87800    0.08100    0.01000    0.01000    0.01000    0.01000    2.77280    2.77300   21.60000    0.01940  104.47890
