~Version ---------------------------------------------------
VERS.   2.0 : CWLS log ASCII Standard -VERSION 2.0
WRAP.    NO : One line per depth step
DLM . SPACE : Column Data Section Delimiter
~Well ------------------------------------------------------
STRT.m           3500.0183 : START DEPTH
STOP.m           4124.8583 : STOP DEPTH
STEP.m 0.15239999999994325 : STEP
NULL.             -9999.25 : NULL VALUE
COMP.                      : COMPANY
WELL.          Random Well : 
FLD .         Random Field : 
LOC .                      : LOCATION
PROV.                      : PROVINCE
CNTY.                      : COUNTY
STAT.                      : STATE
CTRY.                      : COUNTRY
SRVC.                      : SERVICE COMPANY
DATE.                      : DATE
UWI .             12345678 : 
API .                      : API NUMBER
~Curve Information -----------------------------------------
DEPT    .m            : 
CALI    .inches       : 
COAL    .unitless     : 
DT      .us/ft        : 
DT_LOG  .us/ft        : 
DTS     .us/ft        : 
DTS_LOG .us/ft        : 
GR      .API          : 
NPHI    .v/v_decimal  : 
PHIE    .v/v_decimal  : 
PHIEC   .v/v_decimal  : 
PHIT    .v/v_decimal  : 
PHITC   .v/v_decimal  : 
RHOB    .g/cm3        : 
RHOB_LOG.g/cm3        : 
RT      .ohm.m        : 
RW      .ohm.m        : 
TEMP    .degC         : 
~Params ----------------------------------------------------
~Other -----------------------------------------------------
~ASCII -----------------------------------------------------
# ...
 3537.50870    9.01700    0.00000   65.44000   65.44000  118.07200  118.07200   12.27400    0.10490    0.09550    0.09160    0.09550    0.09160    2.50000    2.50000    4.01400    0.02090   95.62740
 3537.66110    9.05900    0.00000   65.50110   65.50110  118.03890  118.03890   14.93100    0.10790    0.07710    0.07620    0.07710    0.07620    2.52890    2.52900    4.06700    0.02090   95.63160
 3537.81350    9.05300    0.00000   65.74510   65.74510  119.24530  119.24530   14.74100    0.09910    0.06630    0.06630    0.06630    0.06630    2.54590    2.54600    4.21800    0.02090   95.63580
 3537.96590    9.04100    0.00000   66.04910   66.04910  120.97710  120.97710   16.70700    0.10840    0.06050    0.06050    0.06050    0.06050    2.55500    2.55500    4.43200    0.02090   95.64010
 3538.11830    9.02900    0.00000   66.25700   66.25700  122.42910  122.42910   16.55500    0.11070    0.05790    0.05790    0.05790    0.05790    2.55900    2.55900    4.63000    0.02090   95.64430
 3538.27070    9.02300    0.00000   66.30900   66.30900  125.25540  125.25540   15.57400    0.09940    0.04970    0.04970    0.04970    0.04970    2.57190    2.57200    4.76100    0.02090   95.64850
 3538.42310    9.01700    0.00000   66.30600   66.30600  127.12450  127.12450   16.22500    0.11530    0.04710    0.04710    0.04710    0.04710    2.57600    2.57600    4.84100    0.02090   95.65280
 3538.57550    9.02300    0.00000   66.36500   66.36500  127.75070  127.75070   13.95700    0.10610    0.04650    0.04650    0.04650    0.04650    2.57700    2.57700    4.83900    0.02090   95.65700
 3538.72790    9.08300    0.00000   66.47300   66.47300  127.39910  127.39910   20.02200    0.10930    0.04580    0.04580    0.04580    0.04580    2.57800    2.57800    4.67000    0.02090   95.66120
 3538.88030    9.06500    0.00000   66.54300   66.54300  127.56570  127.56570   20.34100    0.09710    0.02490    0.02490    0.02490    0.02490    2.61090    2.61100    4.41200    0.02090   95.66550
 3539.03270    9.05900    0.00000   66.57000   66.57000  127.09250  127.09250   24.01600    0.11360    0.05020    0.05020    0.05020    0.05020    2.57120    2.57100    4.28300    0.02090   95.66970
 3539.18510    9.04100    0.00000   66.64310   66.64310  126.38250  126.38250   22.34900    0.10810    0.05980    0.05980    0.05980    0.05980    2.55610    2.55600    4.39300    0.02090   95.67400
 3539.33750    8.99300    0.00000   66.84010   66.84010  125.63020  125.63020   20.14800    0.11240    0.05480    0.05480    0.05480    0.05480    2.56400    2.56400    4.63400    0.02090   95.67820
 3539.48990    9.05300    0.00000   67.11610   67.11610  124.52600  124.52600   22.57600    0.09860    0.06170    0.06170    0.06170    0.06170    2.55300    2.55300    4.77700    0.02090   95.68240
 3539.64230    9.04100    0.00000   67.34510   67.34510  125.87430  125.87430   19.92600    0.11600    0.05670    0.05670    0.05670    0.05670    2.56100    2.56100    4.74700    0.02090   95.68670
 3539.79470    9.03500    0.00000   67.48110   67.48110  126.28360  126.28360   19.31500    0.12270    0.05790    0.05790    0.05790    0.05790    2.55900    2.55900    4.66200    0.02090   95.69090
 3539.94710    9.06500    0.00000   67.61910   67.61910  127.09310  127.09310   17.76200    0.10060    0.05410    0.05410    0.05410    0.05410    2.56500    2.56500    4.58400    0.02090   95.69510
 3540.09950    9.05300    0.00000   67.85920   67.85920  127.27640  127.27640   21.94700    0.10370    0.05730    0.05730    0.05730    0.05730    2.56000    2.56000    4.51500    0.02090   95.69940
 3540.25190    9.02900    0.00000   68.18110   68.18110  127.85800  127.85800   20.96500    0.11090    0.05160    0.05160    0.05160    0.05160    2.56900    2.56900    4.49300    0.02090   95.70360
 3540.40430    9.01700    0.00000   68.46710   68.46710  127.83300  127.83300   21.36700    0.12310    0.04590    0.04590    0.04590    0.04590    2.57800    2.57800    4.52000    0.02090   95.70780
 3540.55670    8.98700    0.00000   68.61100   68.61100  127.76970  127.76970   22.50400    0.11030    0.05150    0.05150    0.05150    0.05150    2.56900    2.56900    4.54700    0.02090   95.71210
 3540.70910    9.05300    0.00000   68.59590   68.59590  127.41070  127.41070   22.87000    0.11430    0.05030    0.05030    0.05030    0.05030    2.57100    2.57100    4.58500    0.02090   95.71630
 3540.86150    9.04100    0.00000   68.49690   68.49690  126.98580  126.98580   20.02000    0.11100    0.06170    0.06170    0.06170    0.06170    2.55310    2.55300    4.70000    0.02090   95.72050
 3541.01390    9.04700    0.00000   68.38400   68.38400  126.76060  126.76060   18.94500    0.11100    0.05410    0.05410    0.05410    0.05410    2.56500    2.56500    4.89400    0.02090   95.72480
 3541.16630    9.05300    0.00000   68.28700   68.28700  127.58100  127.58100   20.05300    0.10110    0.06240    0.06240    0.06240    0.06240    2.55210    2.55200    5.05800    0.02090   95.72900
 3541.31870    9.00500    0.00000   68.23300   68.23300  128.89560  128.89560   21.99500    0.10430    0.05730    0.05730    0.05730    0.05730    2.56000    2.56000    5.07700    0.02090   95.73330
 3541.47110    8.98700    0.00000   68.23400   68.23400  129.67680  129.67680   21.20700    0.11130    0.05670    0.05670    0.05670    0.05670    2.56100    2.56100    4.95200    0.02090   95.73750
 3541.62350    8.97500    0.00000   68.28210   68.28210  129.35580  129.35580   22.19600    0.12230    0.06490    0.06490    0.06490    0.06490    2.54810    2.54800    4.76700    0.02090   95.74170
 3541.77590    9.01700    0.00000   68.48120   68.48120  129.12170  129.12170   26.55600    0.12040    0.06740    0.06730    0.06870    0.06870    2.54200    2.54200    4.57900    0.02090   95.74600
 3541.92830    9.01700    0.00000   68.86820   68.86820  128.76210  128.76210   25.42400    0.12120    0.03650    0.03650    0.03700    0.03700    2.59180    2.59200    4.40100    0.02090   95.75020
 3542.08070    8.99300    0.00000   69.32710   69.32710  128.83760  128.83760   27.21900    0.11420    0.04720    0.04720    0.04900    0.04900    2.57310    2.57300    4.24400    0.02090   95.75440
 3542.23310    8.98700    0.00000   69.61000   69.61000  128.28140  128.28140   27.55700    0.12490    0.05660    0.05660    0.05850    0.05850    2.55810    2.55800    4.17100    0.02090   95.75870
 3542.38550    8.95700    0.00000   69.52280   69.52280  127.43920  127.43920   25.82600    0.12720    0.05010    0.05010    0.05100    0.05100    2.57000    2.57000    4.26200    0.02090   95.76290
 3542.53790    8.95700    0.00000   69.10880   69.10880  126.32390  126.32390   16.87200    0.09970    0.04400    0.04400    0.04400    0.04400    2.58100    2.58100    4.55500    0.02090   95.76710
 3542.69030    8.98100    0.00000   68.59180   68.59180  124.75540  124.75540   16.91700    0.10280    0.03310    0.03310    0.03310    0.03310    2.59790    2.59800    5.02000    0.02090   95.77140
 3542.84270    8.98700    0.00000   68.14280   68.14280  122.53740  122.53740   16.68200    0.09920    0.07180    0.07010    0.07180    0.07010    2.53720    2.53700    5.49300    0.02090   95.77560
 3542.99510    8.98700    0.00000   67.73680   67.73680  118.94480  118.94480   17.21200    0.09040    0.06620    0.06530    0.06620    0.06530    2.54600    2.54600    5.67600    0.02090   95.77980
 3543.14750    8.96300    0.00000   67.23770   67.23770  118.65870  118.65870   20.48400    0.10230    0.05610    0.05610    0.05610    0.05610    2.56190    2.56200    5.49600    0.02080   95.78410
 3543.29990    8.98700    0.00000   66.63880   66.63880  121.06020  121.06020   21.19000    0.11150    0.05280    0.05280    0.05280    0.05280    2.56700    2.56700    5.30200    0.02080   95.78830
 3543.45230    8.96900    0.00000   66.15490   66.15490  124.14880  124.14880   20.55000    0.09710    0.06420    0.06390    0.06420    0.06390    2.54910    2.54900    5.38900    0.02080   95.79250
 3543.60470    8.98100    0.00000   66.00310   66.00310  125.23370  125.23370   13.04200    0.09840    0.04840    0.04840    0.04840    0.04840    2.57390    2.57400    5.71800    0.02080   95.79680
