~Version ---------------------------------------------------
VERS.   2.0 : CWLS log ASCII Standard -VERSION 2.0
WRAP.    NO : One line per depth step
DLM . SPACE : Column Data Section Delimiter
~Well ------------------------------------------------------
STRT.m           3500.0183 : START DEPTH
STOP.m           4124.8583 : STOP DEPTH
STEP.m 0.15239999999994325 : STEP
NULL.             -9999.25 : NULL VALUE
COMP.                      : COMPANY
WELL.          Random Well : 
FLD .         Random Field : 
LOC .                      : LOCATION
PROV.                      : PROVINCE
CNTY.                      : COUNTY
STAT.                      : STATE
CTRY.                      : COUNTRY
SRVC.                      : SERVICE COMPANY
DATE.                      : DATE
UWI .             12345678 : 
API .                      : API NUMBER
~Curve Information -----------------------------------------
DEPT    .m            : 
CALI    .inches       : 
COAL    .unitless     : 
DT      .us/ft        : 
DT_LOG  .us/ft        : 
DTS     .us/ft        : 
DTS_LOG .us/ft        : 
GR      .API          : 
NPHI    .v/v_decimal  : 
PHIE    .v/v_decimal  : 
PHIEC   .v/v_decimal  : 
PHIT    .v/v_decimal  : 
PHITC   .v/v_decimal  : 
RHOB    .g/cm3        : 
RHOB_LOG.g/cm3        : 
RT      .ohm.m        : 
RW      .ohm.m        : 
TEMP    .degC         : 
~Params ----------------------------------------------------
~Other -----------------------------------------------------
~ASCII -----------------------------------------------------
# ...
 3774.94790    9.49800    0.00000   89.26380   89.26380  174.84680  174.84680   82.11200    0.26740    0.01000    0.01000    0.04210    0.04210    2.58370    2.58400    2.05700    0.01980  102.22580
 3775.10030    9.48600    0.00000   88.78090   88.78090  176.63180  176.63180   82.18400    0.26990    0.01000    0.01000    0.06600    0.06600    2.54610    2.54600    2.09000    0.01980  102.23000
 3775.25270    9.51000    0.00000   88.59510   88.59510  178.55550  178.55550   79.70800    0.27140    0.01000    0.01000    0.07870    0.07870    2.52610    2.52600    1.99900    0.01980  102.23430
 3775.40510    9.46200    0.00000   88.73510   88.73510  179.85220  179.85220   87.20500    0.24710    0.01000    0.01000    0.07050    0.07040    2.53890    2.53900    1.88600    0.01980  102.23850
 3775.55750    9.47400    0.00000   89.02610   89.02610  180.29300  180.29300   92.35000    0.25510    0.01000    0.01000    0.08570    0.08570    2.51510    2.51500    1.82100    0.01980  102.24270
 3775.70990    9.47400    0.00000   89.30910   89.30910  180.32610  180.32610  103.91600    0.31910    0.01000    0.01000    0.10340    0.10340    2.48710    2.48700    1.81300    0.01980  102.24700
 3775.86230    9.43800    0.00000   89.60320   89.60320  180.59520  180.59520  104.84600    0.35040    0.01000    0.01000    0.10860    0.10850    2.47900    2.47900    1.83000    0.01980  102.25120
 3776.01470    9.50400    0.00000   90.03430   90.03430  180.96120  180.96120   99.36500    0.31360    0.01000    0.01000    0.10730    0.10720    2.48100    2.48100    1.83300    0.01980  102.25550
 3776.16710    9.51000    0.00000   90.65130   90.65130  181.45820  181.45820   85.90400    0.24700    0.01000    0.01000    0.08520    0.08520    2.51590    2.51600    1.80900    0.01980  102.25970
 3776.31950    9.48600    0.00000   91.20110   91.20110  181.90320  181.90320   83.39100    0.26650    0.01000    0.01000    0.07880    0.07880    2.52600    2.52600    1.77800    0.01980  102.26390
 3776.47190    9.51000    0.00000   91.46310   91.46310  182.25720  182.25720   86.14400    0.26900    0.04200    0.04080    0.11540    0.11430    2.46820    2.46800    1.75400    0.01980  102.26820
 3776.62430    9.49800    0.00000   91.76710   91.76710  182.63610  182.63610   87.41000    0.29340    0.01000    0.01000    0.10420    0.10410    2.48590    2.48600    1.73600    0.01980  102.27240
 3776.77670    9.49200    0.00000   91.92100   91.92100  182.88200  182.88200   89.97600    0.29760    0.01000    0.01000    0.11300    0.11300    2.47210    2.47200    1.71900    0.01980  102.27660
 3776.92910    9.49200    0.00000   91.90800   91.90800  182.82190  182.82190   91.47200    0.29290    0.01000    0.01000    0.09790    0.09780    2.49590    2.49600    1.71200    0.01980  102.28090
 3777.08150    9.46200    0.00000   91.94010   91.94010  182.58360  182.58360   91.07100    0.29730    0.01000    0.01000    0.09780    0.09770    2.49600    2.49600    1.72300    0.01980  102.28510
 3777.23390    9.49800    0.00000   92.13010   92.13010  181.72370  181.72370   86.99300    0.27160    0.01250    0.01240    0.09400    0.09390    2.50200    2.50200    1.74600    0.01980  102.28930
 3777.38630    9.51000    0.00000   92.42010   92.42010  180.96750  180.96750   91.06200    0.25960    0.03870    0.03790    0.10980    0.10900    2.47710    2.47700    1.76100    0.01980  102.29360
 3777.53870    9.49200    0.00000   92.66710   92.66710  179.73810  179.73810   90.68700    0.28910    0.01000    0.01000    0.11050    0.11040    2.47600    2.47600    1.75800    0.01980  102.29780
 3777.69110    9.52200    0.00000   92.76290   92.76290  177.56050  177.56050   86.32900    0.28770    0.01310    0.01310    0.10990    0.10970    2.47700    2.47700    1.74200    0.01980  102.30200
 3777.84350    9.49200    0.00000   92.61980   92.61980  173.99260  173.99260   81.95800    0.24470    0.02410    0.02410    0.09470    0.09470    2.50090    2.50100    1.72200    0.01980  102.30630
 3777.99590    9.52200    0.00000   92.07650   92.07650  170.72120  170.72120   86.77000    0.28310    0.01000    0.01000    0.07820    0.07810    2.52690    2.52700    1.71000    0.01980  102.31050
 3778.14830    9.51000    0.00000   90.90220   90.90220  166.54770  166.54770   85.64000    0.26650    0.01000    0.01000    0.08000    0.08000    2.52400    2.52400    1.71900    0.01980  102.31470
 3778.30070    9.54000    0.00000   88.97990   88.97990  163.53510  163.53510   80.81100    0.32780    0.01000    0.01000    0.01000    0.01000    2.64350    2.64400    1.76100    0.01970  102.31900
 3778.45310    9.51000    0.00000   86.51790   86.51790  161.50780  161.50780   69.15400    0.21330    0.01000    0.01000    0.01000    0.01000    2.68880    2.68900    1.84100    0.01970  102.32320
 3778.60550    9.54000    0.00000   84.01710   84.01710  161.06950  161.06950   58.24500    0.24500    0.01000    0.01000    0.01000    0.01000    2.69200    2.69200    1.95200    0.01970  102.32740
 3778.75790    9.53400    0.00000   81.96540   81.96540  162.18090  162.18090   69.58800    0.21310    0.01000    0.01000    0.06630    0.06630    2.54560    2.54500    2.05500    0.01970  102.33170
 3778.91030    9.54000    0.00000   80.56970   80.56970  164.22800  164.22800   74.35200    0.20270    0.01000    0.01000    0.05210    0.05210    2.56790    2.56800    2.08300    0.01970  102.33590
 3779.06270    9.49200    0.00000   79.82400   79.82400  166.65770  166.65770   77.74600    0.22850    0.03260    0.03260    0.09570    0.09560    2.49930    2.49900    2.02600    0.01970  102.34020
 3779.21510    9.57600    0.00000   79.74230   79.74230  168.36740  168.36740   73.63600    0.23760    0.01890    0.01890    0.08450    0.08450    2.51690    2.51700    1.93600    0.01970  102.34440
 3779.36750    9.67800    0.00000   80.42960   80.42960  169.35840  169.35840   79.70800    0.22350    0.01180    0.01180    0.07880    0.07880    2.52600    2.52600    1.86000    0.01970  102.34860
 3779.51990    9.75100    0.00000   81.89790   81.89790  170.20920  170.20920   83.18200    0.24170    0.03680    0.03660    0.10210    0.10190    2.48910    2.48900    1.81300    0.01970  102.35290
 3779.67230    9.75100    0.00000   83.82680   83.82680  170.69710  170.69710   78.02300    0.30640    0.01000    0.01000    0.07760    0.07760    2.52780    2.52800    1.79100    0.01970  102.35710
 3779.82470    9.82300    0.00000   85.66160   85.66160  170.94400  170.94400   79.16600    0.28890    0.01000    0.01000    0.06990    0.06990    2.54000    2.54000    1.77900    0.01970  102.36130
 3779.97710    9.81100    0.00000   86.96730   86.96730  170.98880  170.98880   79.37100    0.25280    0.01000    0.01000    0.07680    0.07680    2.52900    2.52900    1.76600    0.01970  102.36560
 3780.12950    9.77500    0.00000   87.65010   87.65010  170.63080  170.63080   79.89700    0.28550    0.01000    0.01000    0.08320    0.08320    2.51900    2.51900    1.75700    0.01970  102.36980
 3780.28190    9.76300    0.00000   87.86200   87.86200  170.07880  170.07880   79.51600    0.26690    0.01000    0.01000    0.07620    0.07620    2.53000    2.53000    1.76700    0.01970  102.37400
 3780.43430    9.75100    0.00000   87.78290   87.78290  169.53500  169.53500   77.24500    0.27090    0.01030    0.01030    0.08060    0.08060    2.52300    2.52300    1.79100    0.01970  102.37830
 3780.58670    9.73900    0.00000   87.51880   87.51880  169.53390  169.53390   76.74800    0.26210    0.01790    0.01790    0.08760    0.08760    2.51200    2.51200    1.81200    0.01970  102.38250
 3780.73910    9.78100    0.00000   87.16290   87.16290  169.34900  169.34900   77.29100    0.26090    0.02610    0.02590    0.09650    0.09630    2.49810    2.49800    1.81900    0.01970  102.38670
 3780.89150    9.87700    0.00000   86.87900   86.87900  169.39280  169.39280   74.47800    0.26360    0.02790    0.02790    0.09460    0.09460    2.50100    2.50100    1.81800    0.01970  102.39100
 3781.04390    9.86500    0.00000   86.81110   86.81110  168.94900  168.94900   82.23400    0.24940    0.02690    0.02680    0.09590    0.09570    2.49900    2.49900    1.82300    0.01970  102.39520
