~Version ---------------------------------------------------
VERS.   2.0 : CWLS log ASCII Standard -VERSION 2.0
WRAP.    NO : One line per depth step
DLM . SPACE : Column Data Section Delimiter
~Well ------------------------------------------------------
STRT.m           3500.0183 : START DEPTH
STOP.m           4124.8583 : STOP DEPTH
STEP.m 0.15239999999994325 : STEP
NULL.             -9999.25 : NULL VALUE
COMP.                      : COMPANY
WELL.          Random Well : 
FLD .         Random Field : 
LOC .                      : LOCATION
PROV.                      : PROVINCE
CNTY.                      : COUNTY
STAT.                      : STATE
CTRY.                      : COUNTRY
SRVC.                      : SERVICE COMPANY
DATE.                      : DATE
UWI .             12345678 : 
API .                      : API NUMBER
~Curve Information -----------------------------------------
DEPT    .m            : 
CALI    .inches       : 
COAL    .unitless     : 
DT      .us/ft        : 
DT_LOG  .us/ft        : 
DTS     .us/ft        : 
DTS_LOG .us/ft        : 
GR      .API          : 
NPHI    .v/v_decimal  : 
PHIE    .v/v_decimal  : 
PHIEC   .v/v_decimal  : 
PHIT    .v/v_decimal  : 
PHITC   .v/v_decimal  : 
RHOB    .g/cm3        : 
RHOB_LOG.g/cm3        : 
RT      .ohm.m        : 
RW      .ohm.m        : 
TEMP    .degC         : 
~Params ----------------------------------------------------
~Other -----------------------------------------------------
~ASCII -----------------------------------------------------
# ...
 3618.73790    9.22700    0.00000   70.21600   70.21600  139.84570  139.84570   -9999.25    0.11770    0.02410    0.02410    0.02410    0.02410    2.61200    2.61200    3.94900    0.02050   97.88470
 3618.89030    9.22100    0.00000   70.19300   70.19300  139.39900  139.39900   -9999.25    0.09340    0.03560    0.03560    0.03560    0.03560    2.59410    2.59400    4.06000    0.02050   97.88900
 3619.04270    9.23300    0.00000   70.10100   70.10100  141.02730  141.02730   -9999.25    0.09170    0.03250    0.03250    0.03250    0.03250    2.59900    2.59900    4.00800    0.02050   97.89320
 3619.19510    9.23300    0.00000   70.10210   70.10210  143.08430  143.08430   -9999.25    0.10380    0.01000    0.01000    0.01000    0.01000    2.64080    2.64100    3.85100    0.02050   97.89740
 3619.34750    9.22100    0.00000   70.40030   70.40030  146.80640  146.80640   -9999.25    0.09800    0.01650    0.01650    0.01650    0.01650    2.62410    2.62400    3.63100    0.02050   97.90170
 3619.49990    9.22100    0.00000   71.11650   71.11650  149.07620  149.07620   -9999.25    0.10710    0.02540    0.02540    0.02540    0.02540    2.61010    2.61000    3.38500    0.02050   97.90590
 3619.65230    9.20300    0.00000   72.21950   72.21950  154.26130  154.26130   -9999.25    0.10880    0.04450    0.04450    0.04450    0.04450    2.58010    2.58000    3.14600    0.02050   97.91010
 3619.80470    9.25200    0.00000   73.24630   73.24630  157.92340  157.92340   -9999.25    0.11360    0.03250    0.03250    0.03250    0.03250    2.59890    2.59900    2.91900    0.02050   97.91440
 3619.95710    9.26400    0.00000   73.89350   73.89350  163.39760  163.39760   -9999.25    0.13240    0.04450    0.04450    0.04450    0.04450    2.58010    2.58000    2.69700    0.02050   97.91860
 3620.10950    9.28200    0.00000   75.16370   75.16370  166.00730  166.00730   -9999.25    0.12610    0.03000    0.03000    0.03000    0.03000    2.60290    2.60300    2.49100    0.02050   97.92280
 3620.26190    9.27000    0.00000   76.76360   76.76360  166.42610  166.42610   -9999.25    0.14490    0.04760    0.04760    0.04760    0.04760    2.57510    2.57500    2.33300    0.02050   97.92710
 3620.41430    9.30000    0.00000   78.14640   78.14640  164.90030  164.90030   -9999.25    0.14170    0.04640    0.04640    0.04640    0.04640    2.57700    2.57700    2.24800    0.02050   97.93130
 3620.56670    9.27000    0.00000   79.04810   79.04810  162.15670  162.15670    9.53800    0.14870    0.03820    0.03820    0.03820    0.03820    2.58990    2.59000    2.25500    0.02050   97.93550
 3620.71910    9.28800    0.00000   79.34190   79.34190  158.54280  158.54280    6.91400    0.16850    0.06030    0.06030    0.06030    0.06030    2.55510    2.55500    2.38000    0.02050   97.93980
 3620.87150    9.30000    0.00000   79.05870   79.05870  154.97130  154.97130    6.11200    0.14570    0.04780    0.04780    0.04780    0.04780    2.57490    2.57500    2.62700    0.02050   97.94400
 3621.02390    9.27600    0.00000   78.33550   78.33550  148.99060  148.99060    4.84800    0.13190    0.04900    0.04900    0.04900    0.04900    2.57300    2.57300    2.93200    0.02050   97.94830
 3621.17630    9.27000    0.00000   77.27640   77.27640  146.65470  146.65470    5.14700    0.12580    0.05020    0.05020    0.05020    0.05020    2.57100    2.57100    3.19500    0.02050   97.95250
 3621.32870    9.25200    0.00000   75.91930   75.91930  144.58390  144.58390    5.03200    0.10240    0.02930    0.02930    0.02930    0.02930    2.60390    2.60400    3.38600    0.02050   97.95670
 3621.48110    9.22100    0.00000   74.40540   74.40540  144.39570  144.39570    4.53900    0.10600    0.03690    0.03690    0.03690    0.03690    2.59200    2.59200    3.49200    0.02050   97.96100
 3621.63350    9.20300    0.00000   73.05060   73.05060  145.53350  145.53350    4.51300    0.10520    0.04070    0.04070    0.04070    0.04070    2.58600    2.58600    3.45400    0.02050   97.96520
 3621.78590    9.20900    0.00000   72.18290   72.18290  147.88840  147.88840    3.87200    0.10200    0.03370    0.03370    0.03370    0.03370    2.59700    2.59700    3.28400    0.02050   97.96940
 3621.93830    9.30600    0.00000   71.93910   71.93910  151.79820  151.79820    3.76100    0.10170    0.02990    0.02990    0.02990    0.02990    2.60300    2.60300    3.07100    0.02050   97.97370
 3622.09070    9.34800    0.00000   72.19520   72.19520  153.67530  153.67530    5.55800    0.11960    0.04510    0.04510    0.04510    0.04510    2.57910    2.57900    2.89400    0.02050   97.97790
 3622.24310    9.34800    0.00000   72.71330   72.71330  157.37910  157.37910    5.09500    0.12210    0.03120    0.03120    0.03120    0.03120    2.60090    2.60100    2.80200    0.02050   97.98210
 3622.39550    9.34800    0.00000   73.37340   73.37340  160.72400  160.72400    5.46100    0.12560    0.03880    0.03880    0.03880    0.03880    2.58900    2.58900    2.78200    0.02050   97.98640
 3622.54790    9.36000    0.00000   74.21950   74.21950  164.01990  164.01990    4.37500    0.12840    0.03370    0.03370    0.03370    0.03370    2.59700    2.59700    2.73200    0.02050   97.99060
 3622.70030    9.33600    0.00000   75.27450   75.27450  165.43030  165.43030    6.99900    0.12680    0.04190    0.04190    0.04190    0.04190    2.58410    2.58400    2.57200    0.02050   97.99480
 3622.85270    9.33600    0.00000   76.45250   76.45250  167.44790  167.44790    7.01500    0.14670    0.04070    0.04070    0.04070    0.04070    2.58600    2.58600    2.35400    0.02050   97.99910
 3623.00510    9.36000    0.00000   77.60340   77.60340  167.26100  167.26100   34.20700    0.16360    0.03670    0.03670    0.04390    0.04390    2.58100    2.58100    2.17500    0.02050   98.00330
 3623.15750    9.34800    0.00000   78.58330   78.58330  167.29120  167.29120   36.08500    0.15160    0.05930    0.05930    0.06800    0.06800    2.54310    2.54300    2.08100    0.02050   98.00760
 3623.30990    9.39600    0.00000   79.28920   79.28920  165.96630  165.96630   38.10100    0.16000    0.03190    0.03190    0.04210    0.04210    2.58380    2.58400    2.08600    0.02050   98.01180
 3623.46230    9.41400    0.00000   79.66100   79.66100  164.77460  164.77460   38.21700    0.15970    0.03740    0.03740    0.04770    0.04770    2.57500    2.57500    2.19800    0.02050   98.01600
 3623.61470    9.37200    0.00000   79.69790   79.69790  162.46700  162.46700   32.98600    0.16730    0.04200    0.04200    0.04830    0.04830    2.57400    2.57400    2.38600    0.02050   98.02030
 3623.76710    9.34800    0.00000   79.46180   79.46180  160.86000  160.86000   31.56800    0.12950    0.01330    0.01330    0.01860    0.01860    2.62080    2.62100    2.54300    0.02050   98.02450
 3623.91950    9.34800    0.00000   79.05080   79.05080  159.25740  159.25740   26.67800    0.13820    0.01820    0.01820    0.01970    0.01970    2.61900    2.61900    2.57000    0.02050   98.02870
 3624.07190    9.36000    0.00000   78.52670   78.52670  158.23930  158.23930   27.32300    0.13160    0.03860    0.03860    0.04060    0.04060    2.58610    2.58600    2.50300    0.02050   98.03300
 3624.22430    9.36000    0.00000   77.89770   77.89770  157.03370  157.03370   28.80800    0.15260    0.04390    0.04390    0.04700    0.04700    2.57600    2.57600    2.45400    0.02050   98.03720
 3624.37670    9.38980    0.00000   77.19010   77.19010  156.60810  156.60810   28.00190    0.14750    0.04140    0.04140    0.04390    0.04390    2.58100    2.58100    2.48000    0.02050   98.04140
 3624.52910    9.37200    0.00000   76.54880   76.54880  155.23300  155.23300   28.75600    0.13330    0.03830    0.03830    0.04140    0.04140    2.58500    2.58500    2.56200    0.02050   98.04570
 3624.68150    9.34800    0.00000   76.08790   76.08790  153.62460  153.62460   28.26200    0.13940    0.04620    0.04620    0.04890    0.04890    2.57300    2.57300    2.66200    0.02050   98.04990
 3624.83390    9.37200    0.00000   75.84690   75.84690  151.43100  151.43100   29.31000    0.12490    0.03980    0.03980    0.04330    0.04330    2.58200    2.58200    2.76000    0.02050   98.05410
