~Version ---------------------------------------------------
VERS.   2.0 : CWLS log ASCII Standard -VERSION 2.0
WRAP.    NO : One line per depth step
DLM . SPACE : Column Data Section Delimiter
~Well ------------------------------------------------------
STRT.m           3500.0183 : START DEPTH
STOP.m           4124.8583 : STOP DEPTH
STEP.m 0.15239999999994325 : STEP
NULL.             -9999.25 : NULL VALUE
COMP.                      : COMPANY
WELL.          Random Well : 
FLD .         Random Field : 
LOC .                      : LOCATION
PROV.                      : PROVINCE
CNTY.                      : COUNTY
STAT.                      : STATE
CTRY.                      : COUNTRY
SRVC.                      : SERVICE COMPANY
DATE.                      : DATE
UWI .             12345678 : 
API .                      : API NUMBER
~Curve Information -----------------------------------------
DEPT    .m            : 
CALI    .inches       : 
COAL    .unitless     : 
DT      .us/ft        : 
DT_LOG  .us/ft        : 
DTS     .us/ft        : 
DTS_LOG .us/ft        : 
GR      .API          : 
NPHI    .v/v_decimal  : 
PHIE    .v/v_decimal  : 
PHIEC   .v/v_decimal  : 
PHIT    .v/v_decimal  : 
PHITC   .v/v_decimal  : 
RHOB    .g/cm3        : 
RHOB_LOG.g/cm3        : 
RT      .ohm.m        : 
RW      .ohm.m        : 
TEMP    .degC         : 
~Params ----------------------------------------------------
~Other -----------------------------------------------------
~ASCII -----------------------------------------------------
# ...
 3656.22830    9.09500    0.00000   83.57710   83.57710  159.91610  159.91610   48.58200    0.21150    0.08840    0.08780    0.12270    0.12210    2.45710    2.45700    1.95800    0.02030   98.92660
 3656.38070    9.03500    0.00000   83.85410   83.85410  160.04720  160.04720   46.14400    0.21710    0.09120    0.09110    0.12210    0.12200    2.45800    2.45800    1.84800    0.02030   98.93080
 3656.53310    9.04100    0.00000   84.12110   84.12110  160.39770  160.39770   41.26000    0.23180    0.09430    0.09430    0.11830    0.11830    2.46400    2.46400    1.77900    0.02030   98.93510
 3656.68550    9.01100    0.00000   84.42710   84.42710  159.83800  159.83800   43.04500    0.22150    0.09350    0.09350    0.12020    0.12020    2.46100    2.46100    1.78000    0.02030   98.93930
 3656.83790    9.04700    0.00000   84.64700   84.64700  159.75910  159.75910   46.65300    0.18060    0.09760    0.09660    0.12970    0.12870    2.44610    2.44600    1.82500    0.02030   98.94350
 3656.99030    9.02900    0.00000   84.64790   84.64790  159.87190  159.87190   46.59600    0.21290    0.10580    0.10340    0.13790    0.13560    2.43310    2.43300    1.86700    0.02030   98.94780
 3657.14270    9.05900    0.00000   84.43180   84.43180  159.77530  159.77530   45.75400    0.20560    0.08990    0.08990    0.12090    0.12090    2.45990    2.46000    1.87600    0.02030   98.95200
 3657.29510    9.14900    0.00000   84.09280   84.09280  160.29410  160.29410   44.23600    0.20370    0.08870    0.08870    0.11760    0.11760    2.46500    2.46500    1.85700    0.02030   98.95620
 3657.44750    9.16100    0.00000   83.72890   83.72890  160.47560  160.47560   47.58800    0.19790    0.08490    0.08490    0.11890    0.11890    2.46300    2.46300    1.82200    0.02030   98.96050
 3657.59990    9.25200    0.00000   83.42290   83.42290  161.41750  161.41750   48.05100    0.18200    0.07960    0.07960    0.11450    0.11450    2.47000    2.47000    1.78600    0.02030   98.96470
 3657.75230    9.21500    0.00000   83.25400   83.25400  162.33330  162.33330   48.09100    0.19320    0.08190    0.08190    0.11700    0.11700    2.46600    2.46600    1.76200    0.02030   98.96890
 3657.90470    9.25200    0.00000   83.29110   83.29110  162.80700  162.80700   48.56800    0.20250    0.08230    0.08230    0.11830    0.11830    2.46400    2.46400    1.75100    0.02030   98.97320
 3658.05710    9.24600    0.00000   83.51610   83.51610  162.78990  162.78990   46.74500    0.20480    0.10330    0.10200    0.13660    0.13530    2.43510    2.43500    1.74500    0.02030   98.97740
 3658.20950    9.27000    0.00000   83.77710   83.77710  162.62270  162.62270   48.11300    0.19330    0.09800    0.09730    0.13350    0.13280    2.44000    2.44000    1.73300    0.02030   98.98160
 3658.36190    9.24600    0.00000   83.94410   83.94410  162.04960  162.04960   43.30800    0.20890    0.10520    0.10420    0.13350    0.13250    2.44000    2.44000    1.71000    0.02030   98.98590
 3658.51430    9.20300    0.00000   84.07510   84.07510  161.42360  161.42360   49.73600    0.22150    0.07820    0.07820    0.11640    0.11640    2.46690    2.46700    1.68200    0.02030   98.99010
 3658.66670    9.19700    0.00000   84.32720   84.32720  160.66150  160.66150   43.99400    0.21050    0.10580    0.10490    0.13540    0.13450    2.43710    2.43700    1.66100    0.02030   98.99430
 3658.81910    9.22100    0.00000   84.73820   84.73820  159.83150  159.83150   42.43100    0.20030    0.12090    0.11790    0.14810    0.14510    2.41710    2.41700    1.64700    0.02030   98.99860
 3658.97150    9.24600    0.00000   85.13510   85.13510  158.90070  158.90070   44.85500    0.21300    0.09810    0.09810    0.12910    0.12910    2.44690    2.44700    1.62500    0.02030   99.00280
 3659.12390    9.25800    0.00000   85.29400   85.29400  158.37070  158.37070   45.55500    0.22300    0.10440    0.10390    0.13670    0.13620    2.43500    2.43500    1.59100    0.02030   99.00710
 3659.27630    9.22100    0.00000   85.18890   85.18890  157.91510  157.91510   45.97000    0.21260    0.09480    0.09480    0.12780    0.12780    2.44890    2.44900    1.56100    0.02030   99.01130
 3659.42870    9.24600    0.00000   85.01000   85.01000  158.06340  158.06340   43.67100    0.20810    0.10330    0.10330    0.13290    0.13290    2.44100    2.44100    1.55700    0.02030   99.01550
 3659.58110    9.23300    0.00000   84.97210   84.97210  158.82010  158.82010   46.16300    0.20640    0.10560    0.10500    0.13920    0.13860    2.43100    2.43100    1.58000    0.02030   99.01980
 3659.73350    9.24600    0.00000   85.10410   85.10410  159.04520  159.04520   46.27000    0.20650    0.09530    0.09530    0.12910    0.12910    2.44690    2.44700    1.61400    0.02030   99.02400
 3659.88590    9.23300    0.00000   85.24300   85.24300  159.44520  159.44520   48.06700    0.20730    0.09100    0.09100    0.12780    0.12780    2.44900    2.44900    1.62800    0.02030   99.02820
 3660.03830    9.25800    0.00000   85.21990   85.21990  159.70000  159.70000   46.46100    0.20390    0.10040    0.10040    0.13480    0.13470    2.43800    2.43800    1.61100    0.02030   99.03250
 3660.19070    9.28200    0.00000   85.02990   85.02990  159.71790  159.71790   49.49800    0.19950    0.09860    0.09860    0.13800    0.13800    2.43300    2.43300    1.57800    0.02030   99.03670
 3660.34310    9.31800    0.00000   84.80390   84.80390  159.58690  159.58690   46.29200    0.18040    0.10740    0.10670    0.14180    0.14110    2.42700    2.42700    1.55100    0.02030   99.04090
 3660.49550    9.37200    0.00000   84.66800   84.66800  159.40480  159.40480   48.72200    0.20790    0.10160    0.10150    0.13990    0.13980    2.43000    2.43000    1.54400    0.02030   99.04520
 3660.64790    9.34800    0.00000   84.63200   84.63200  159.05610  159.05610   47.22000    0.21840    0.09240    0.09240    0.12850    0.12850    2.44790    2.44800    1.56100    0.02030   99.04940
 3660.80030    9.33000    0.00000   84.59900   84.59900  159.21800  159.21800   46.76200    0.19650    0.10820    0.10710    0.14360    0.14250    2.42410    2.42400    1.59300    0.02030   99.05360
 3660.95270    9.34200    0.00000   84.47990   84.47990  159.22130  159.22130   49.15600    0.20030    0.08910    0.08910    0.12850    0.12850    2.44790    2.44800    1.62400    0.02030   99.05790
 3661.10510    9.34200    0.00000   84.30800   84.30800  159.75920  159.75920   47.54000    0.21390    0.09090    0.09090    0.12780    0.12780    2.44900    2.44900    1.64200    0.02030   99.06210
 3661.25750    9.31800    0.00000   84.20900   84.20900  160.16930  160.16930   50.15500    0.19550    0.08970    0.08970    0.13100    0.13100    2.44400    2.44400    1.63900    0.02030   99.06640
 3661.40990    9.33000    0.00000   84.26510   84.26510  160.70230  160.70230   50.41000    0.20180    0.07910    0.07910    0.12080    0.12080    2.45990    2.46000    1.62100    0.02030   99.07060
 3661.56230    9.32400    0.00000   84.44510   84.44510  161.24000  161.24000   56.15600    0.19910    0.06630    0.06630    0.11760    0.11760    2.46500    2.46500    1.60400    0.02030   99.07480
 3661.71470    9.33000    0.00000   84.66410   84.66410  161.23730  161.23730   52.89100    0.19610    0.08990    0.08990    0.13600    0.13600    2.43610    2.43600    1.60100    0.02030   99.07910
 3661.86710    9.36000    0.00000   84.87110   84.87110  159.96320  159.96320   55.01300    0.20160    0.08190    0.08190    0.13160    0.13160    2.44300    2.44300    1.60900    0.02030   99.08330
 3662.01950    9.37200    0.00000   85.00800   85.00800  158.61590  158.61590   52.00200    0.19800    0.08740    0.08740    0.13220    0.13220    2.44200    2.44200    1.62400    0.02030   99.08750
 3662.17190    9.36600    0.00000   84.93480   84.93480  156.64100  156.64100   50.20400    0.21130    0.08330    0.08330    0.12530    0.12530    2.45300    2.45300    1.64400    0.02030   99.09180
 3662.32430    9.36600    0.00000   84.50070   84.50070  154.83300  154.83300   48.67600    0.20430    0.06540    0.06540    0.10500    0.10500    2.48490    2.48500    1.66600    0.02030   99.09600
