~Version ---------------------------------------------------
VERS.   2.0 : CWLS log ASCII Standard -VERSION 2.0
WRAP.    NO : One line per depth step
DLM . SPACE : Column Data Section Delimiter
~Well ------------------------------------------------------
STRT.m           3500.0183 : START DEPTH
STOP.m           4124.8583 : STOP DEPTH
STEP.m 0.15239999999994325 : STEP
NULL.             -9999.25 : NULL VALUE
COMP.                      : COMPANY
WELL.          Random Well : 
FLD .         Random Field : 
LOC .                      : LOCATION
PROV.                      : PROVINCE
CNTY.                      : COUNTY
STAT.                      : STATE
CTRY.                      : COUNTRY
SRVC.                      : SERVICE COMPANY
DATE.                      : DATE
UWI .             12345678 : 
API .                      : API NUMBER
~Curve Information -----------------------------------------
DEPT    .m            : 
CALI    .inches       : 
COAL    .unitless     : 
DT      .us/ft        : 
DT_LOG  .us/ft        : 
DTS     .us/ft        : 
DTS_LOG .us/ft        : 
GR      .API          : 
NPHI    .v/v_decimal  : 
PHIE    .v/v_decimal  : 
PHIEC   .v/v_decimal  : 
PHIT    .v/v_decimal  : 
PHITC   .v/v_decimal  : 
RHOB    .g/cm3        : 
RHOB_LOG.g/cm3        : 
RT      .ohm.m        : 
RW      .ohm.m        : 
TEMP    .degC         : 
~Params ----------------------------------------------------
~Other -----------------------------------------------------
~ASCII -----------------------------------------------------
# ...
 4006.13870    8.01900    0.00000   75.14100   75.14100  127.02900  127.02900   22.98400    0.15640    0.19170    0.18790    0.19250    0.18870    2.34620    2.34600    0.65600    0.01880  108.65060
 4006.29110    8.01900    0.00000   75.09410   75.09410  126.89800  126.89800   23.24100    0.14530    0.20210    0.19680    0.20210    0.19680    2.33110    2.33100    0.64800    0.01880  108.65480
 4006.44350    8.01900    0.00000   75.27510   75.27510  126.74300  126.74300   22.90100    0.12840    0.19390    0.19030    0.19390    0.19030    2.34390    2.34400    0.63400    0.01880  108.65910
 4006.59590    8.02500    0.00000   75.42200   75.42200  126.50400  126.50400   21.14400    0.13810    0.16170    0.16170    0.16170    0.16170    2.39480    2.39500    0.62700    0.01880  108.66330
 4006.74830    8.09700    0.00000   75.44100   75.44100  126.51800  126.51800   24.44600    0.15020    0.20820    0.20240    0.20820    0.20240    2.32130    2.32100    0.62900    0.01880  108.66750
 4006.90070    8.09100    0.00000   75.46710   75.46710  126.69500  126.69500   24.17900    0.14910    0.19060    0.18760    0.19080    0.18770    2.34890    2.34900    0.63200    0.01880  108.67180
 4007.05310    8.06700    0.00000   75.63810   75.63810  126.91900  126.91900   27.32100    0.16370    0.19660    0.19260    0.19760    0.19360    2.33800    2.33800    0.63100    0.01880  108.67600
 4007.20550    8.07900    0.00000   75.87100   75.87100  127.19800  127.19800   40.88200    0.14050    0.14360    0.14360    0.14720    0.14720    2.41770    2.41800    0.62900    0.01880  108.68020
 4007.35790    8.07900    0.00000   75.94090   75.94090  127.31000  127.31000   40.41800    0.13100    0.06780    0.06780    0.07570    0.07570    2.53060    2.53100    0.62900    0.01880  108.68450
 4007.51030    8.09100    0.00000   75.74890   75.74890  127.34600  127.34600   37.28200    0.12350    0.06570    0.06570    0.07220    0.07220    2.53600    2.53600    0.63200    0.01880  108.68870
 4007.66270    8.07900    0.00000   75.43990   75.43990  127.28900  127.28900   32.45000    0.13370    0.13960    0.13960    0.14290    0.14290    2.42440    2.42400    0.64200    0.01880  108.69290
 4007.81510    8.00100    0.00000   75.25800   75.25800  127.45710  127.45710   28.29400    0.12810    0.14600    0.14600    0.14820    0.14820    2.41600    2.41600    0.66100    0.01880  108.69720
 4007.96750    7.96500    0.00000   75.32310   75.32310  127.99810  127.99810   26.14000    0.13100    0.15090    0.15090    0.15270    0.15270    2.40900    2.40900    0.67900    0.01880  108.70140
 4008.11990    8.03100    0.00000   75.56310   75.56310  128.83710  128.83710   24.56100    0.13990    0.16100    0.16100    0.16210    0.16210    2.39410    2.39400    0.69600    0.01880  108.70570
 4008.27230    7.98900    0.00000   75.85920   75.85920  129.66710  129.66710   25.42200    0.16450    0.19780    0.19190    0.19880    0.19280    2.33620    2.33600    0.71500    0.01880  108.70990
 4008.42470    8.01900    0.00000   76.21420   76.21420  130.02300  130.02300   24.10900    0.15650    0.21470    0.20580    0.21470    0.20580    2.31110    2.31100    0.72700    0.01880  108.71410
 4008.57710    8.04900    0.00000   76.69520   76.69520  130.36600  130.36600   24.67000    0.13950    0.20840    0.20080    0.20840    0.20080    2.32100    2.32100    0.71100    0.01880  108.71840
 4008.72950    8.05500    0.00000   77.25520   77.25520  130.20400  130.20400   25.41900    0.16420    0.20430    0.19820    0.20460    0.19850    2.32700    2.32700    0.66900    0.01880  108.72260
 4008.88190    8.07300    0.00000   77.72910   77.72910  130.05700  130.05700   24.32400    0.18320    0.21830    0.21090    0.21910    0.21180    2.30410    2.30400    0.61800    0.01880  108.72680
 4009.03430    8.06700    0.00000   78.01610   78.01610  129.85190  129.85190   23.14500    0.17590    0.21840    0.21240    0.21860    0.21260    2.30500    2.30500    0.56600    0.01880  108.73110
 4009.18670    8.04900    0.00000   78.15900   78.15900  129.43300  129.43300   24.54800    0.18360    0.22660    0.22060    0.22680    0.22070    2.29210    2.29200    0.51900    0.01880  108.73530
 4009.33910    8.16900    0.00000   78.23400   78.23400  129.52290  129.52290   22.35000    0.16180    0.23250    0.22680    0.23250    0.22680    2.28300    2.28300    0.47900    0.01880  108.73950
 4009.49150    8.27100    0.00000   78.22590   78.22590  129.06500  129.06500   24.25900    0.16770    0.21550    0.21390    0.21550    0.21390    2.30990    2.31000    0.44300    0.01880  108.74380
 4009.64390    8.26500    0.00000   78.01880   78.01880  128.87090  128.87090   25.74900    0.15770    0.20840    0.20840    0.20840    0.20840    2.32100    2.32100    0.41400    0.01880  108.74800
 4009.79630    8.26500    0.00000   77.53570   77.53570  127.96390  127.96390   23.75900    0.17770    0.18840    0.18840    0.18890    0.18890    2.35190    2.35200    0.39900    0.01880  108.75220
 4009.94870    8.22900    0.00000   76.80160   76.80160  126.88090  126.88090   24.62300    0.13100    0.15960    0.15960    0.16040    0.16040    2.39680    2.39700    0.39600    0.01880  108.75650
 4010.10110    8.21700    0.00000   75.87150   75.87150  125.79580  125.79580   22.67900    0.13970    0.18110    0.18110    0.18110    0.18110    2.36410    2.36400    0.40600    0.01880  108.76070
 4010.25350    8.22300    0.00000   74.78150   74.78150  124.19400  124.19400   25.90400    0.14740    0.16660    0.16660    0.16790    0.16790    2.38490    2.38500    0.44200    0.01880  108.76490
 4010.40590    8.23500    0.00000   73.59550   73.59550  124.56980  124.56980   38.70300    0.10760    0.15840    0.15840    0.15840    0.15840    2.39990    2.40000    0.53500    0.01880  108.76920
 4010.55830    8.32600    0.00000   72.49770   72.49770  123.39780  123.39780   49.30100    0.11620    0.08380    0.08380    0.09020    0.09020    2.50760    2.50800    0.74800    0.01880  108.77340
 4010.71070    8.30200    0.00000   71.69680   71.69680  121.91360  121.91360   55.05800    0.13190    0.09580    0.09580    0.10260    0.10260    2.48810    2.48800    1.21000    0.01880  108.77770
 4010.86310    8.33200    0.00000   71.23490   71.23490  118.87890  118.87890   51.75100    0.13160    0.07110    0.07110    0.07990    0.07990    2.52390    2.52400    1.95900    0.01880  108.78190
 4011.01550    8.26500    0.00000   70.93190   70.93190  118.48910  118.48910   55.64500    0.13870    0.09030    0.08790    0.09810    0.09570    2.49510    2.49500    2.32500    0.01880  108.78610
 4011.16790    8.28400    0.00000   70.68190   70.68190  119.24530  119.24530   55.86700    0.13560    0.11350    0.10910    0.11900    0.11460    2.46210    2.46200    2.10000    0.01880  108.79040
 4011.32030    8.28400    0.00000   70.49680   70.49680  121.21520  121.21520   53.98600    0.13820    0.08230    0.08200    0.09070    0.09040    2.50680    2.50700    1.91300    0.01880  108.79460
 4011.47270    8.54800    0.00000   70.10780   70.10780  122.97430  122.97430   53.39300    0.12430    0.04080    0.04080    0.05150    0.05150    2.56880    2.56900    1.87500    0.01880  108.79880
 4011.62510    8.54800    0.00000   69.64980   69.64980  125.55160  125.55160   53.13140    0.12070    0.03350    0.03350    0.04440    0.04440    2.57990    2.58000    1.86590    0.01880  108.80310
 4011.77750    8.57200    0.00000   69.25380   69.25380  122.33110  122.33110   47.32600    0.11810    0.04680    0.04680    0.05630    0.05630    2.56110    2.56100    1.82500    0.01880  108.80730
 4011.92990    8.57800    0.00000   68.78570   68.78570  122.85380  122.85380   47.78200    0.12220    0.05610    0.05610    0.06520    0.06520    2.54710    2.54700    1.77000    0.01880  108.81150
 4012.08230    8.59000    0.00000   68.04460   68.04460  121.47200  121.47200   45.90200    0.11590    0.04730    0.04730    0.05640    0.05640    2.56090    2.56100    1.72800    0.01880  108.81580
 4012.23470    8.54800    0.00000   67.04260   67.04260  121.24770  121.24770   43.53900    0.13240    0.05080    0.05080    0.05890    0.05890    2.55700    2.55700    1.70900    0.01880  108.82000
