~Version ---------------------------------------------------
VERS.   2.0 : CWLS log ASCII Standard -VERSION 2.0
WRAP.    NO : One line per depth step
DLM . SPACE : Column Data Section Delimiter
~Well ------------------------------------------------------
STRT.m           3500.0183 : START DEPTH
STOP.m           4124.8583 : STOP DEPTH
STEP.m 0.15239999999994325 : STEP
NULL.             -9999.25 : NULL VALUE
COMP.                      : COMPANY
WELL.          Random Well : 
FLD .         Random Field : 
LOC .                      : LOCATION
PROV.                      : PROVINCE
CNTY.                      : COUNTY
STAT.                      : STATE
CTRY.                      : COUNTRY
SRVC.                      : SERVICE COMPANY
DATE.                      : DATE
UWI .             12345678 : 
API .                      : API NUMBER
~Curve Information -----------------------------------------
DEPT    .m            : 
CALI    .inches       : 
COAL    .unitless     : 
DT      .us/ft        : 
DT_LOG  .us/ft        : 
DTS     .us/ft        : 
DTS_LOG .us/ft        : 
GR      .API          : 
NPHI    .v/v_decimal  : 
PHIE    .v/v_decimal  : 
PHIEC   .v/v_decimal  : 
PHIT    .v/v_decimal  : 
PHITC   .v/v_decimal  : 
RHOB    .g/cm3        : 
RHOB_LOG.g/cm3        : 
RT      .ohm.m        : 
RW      .ohm.m        : 
TEMP    .degC         : 
~Params ----------------------------------------------------
~Other -----------------------------------------------------
~ASCII -----------------------------------------------------
# ...
 3931.15790    8.74000    0.00000   71.71380   71.71380  125.63320  125.63320   20.76000    0.12570    0.05310    0.05310    0.06040    0.06040    2.55470    2.55500    2.99500    0.01910  106.56690
 3931.31030    8.76500    0.00000   71.33690   71.33690  126.47660  126.47660   26.40700    0.11460    0.02770    0.02770    0.04000    0.04000    2.58690    2.58700    2.94200    0.01910  106.57110
 3931.46270    8.74000    0.00000   71.15900   71.15900  129.03030  129.03030   28.68800    0.11450    0.03960    0.03960    0.05380    0.05380    2.56510    2.56500    3.03700    0.01910  106.57530
 3931.61510    8.85500    0.00000   71.20210   71.20210  130.58350  130.58350   23.89400    0.16740    0.10680    0.10680    0.11670    0.11670    2.45540    2.45500    3.24300    0.01910  106.57960
 3931.76750    8.85500    0.00000   71.39510   71.39510  132.74310  132.74310   34.54500    0.13180    0.06850    0.06700    0.08760    0.08610    2.51180    2.51200    3.57100    0.01910  106.58380
 3931.91990    8.86100    0.00000   71.72520   71.72520  133.01210  133.01210   34.05600    0.14870    0.11330    0.11330    0.12570    0.12570    2.43630    2.43600    4.06300    0.01910  106.58810
 3932.07230    8.84900    0.00000   72.25330   72.25330  133.29380  133.29380   35.91100    0.23860    0.12020    0.12020    0.14060    0.14060    2.40810    2.40800    4.66900    0.01910  106.59230
 3932.22470    8.85500    0.00000   72.96930   72.96930  132.55200  132.55200   38.60200    0.22050    0.12290    0.12290    0.14570    0.14570    2.39800    2.39800    5.18600    0.01910  106.59650
 3932.37710    8.86100    0.00000   73.67420   73.67420  132.47470  132.47470   36.08700    0.23610    0.11320    0.11320    0.13370    0.13370    2.41990    2.42000    5.40400    0.01910  106.60080
 3932.52950    8.86100    0.00000   74.07100   74.07100  131.16120  131.16120   41.49200    0.18670    0.12580    0.12580    0.14250    0.14250    2.40310    2.40300    5.25700    0.01910  106.60500
 3932.68190    8.81900    0.00000   74.05690   74.05690  131.90970  131.90970   39.51500    0.21970    0.10340    0.10340    0.12680    0.12680    2.43390    2.43400    4.87600    0.01910  106.60920
 3932.83430    8.85500    0.00000   73.82990   73.82990  130.76110  130.76110   36.03200    0.19740    0.08770    0.08210    0.10790    0.10230    2.47980    2.48000    4.50200    0.01910  106.61350
 3932.98670    8.86700    0.00000   73.64400   73.64400  131.27690  131.27690   40.19400    0.22170    0.05730    0.05580    0.08130    0.07970    2.52180    2.52200    4.26300    0.01910  106.61770
 3933.13910    8.87900    0.00000   73.53390   73.53390  130.97300  130.97300   38.52000    0.19390    0.08030    0.07590    0.10260    0.09830    2.48810    2.48800    4.12800    0.01910  106.62190
 3933.29150    8.84300    0.00000   73.23270   73.23270  130.86380  130.86380   35.44900    0.20800    0.03780    0.03780    0.05720    0.05720    2.55970    2.56000    3.98900    0.01910  106.62620
 3933.44390    8.83100    0.00000   72.62770   72.62770  130.12090  130.12090   39.33400    0.20840    0.01000    0.01000    0.01000    0.01000    2.68950    2.69000    3.73900    0.01910  106.63040
 3933.59630    8.84900    0.00000   71.88480   71.88480  129.50470  129.50470   42.83100    0.21430    0.03570    0.03570    0.06180    0.06180    2.55250    2.55200    3.40700    0.01910  106.63460
 3933.74870    8.78900    0.00000   71.39500   71.39500  127.97560  127.97560   38.94400    0.16050    0.26080    0.26080    0.26080    0.26080    2.18150    2.18000    3.13400    0.01910  106.63890
 3933.90110    8.80700    0.00000   71.35300   71.35300  126.16700  126.16700   37.72400    0.14160    0.01970    0.01970    0.04100    0.04100    2.58540    2.58700    2.96900    0.01910  106.64310
 3934.05350    8.84900    0.00000   71.45690   71.45690  126.14600  126.14600   39.81000    0.15720    0.01930    0.01930    0.04250    0.04250    2.58300    2.58300    2.84900    0.01910  106.64730
 3934.20590    8.72200    0.00000   71.30180   71.30180  126.26460  126.26460   42.56500    0.17990    0.02000    0.02000    0.04560    0.04560    2.57800    2.57800    2.71900    0.01910  106.65160
 3934.35830    8.74000    0.00000   70.89890   70.89890  124.37140  124.37140   43.81000    0.18750    0.03790    0.03790    0.06460    0.06460    2.54810    2.54800    2.57700    0.01910  106.65580
 3934.51070    8.74000    0.00000   70.59600   70.59600  121.69860  121.69860   39.77000    0.19300    0.04560    0.04560    0.06850    0.06850    2.54200    2.54200    2.42400    0.01910  106.66010
 3934.66310    8.50000    0.00000   70.58810   70.58810  119.76560  119.76560   34.98100    0.13440    0.05830    0.05830    0.07670    0.07670    2.52910    2.52900    2.26700    0.01910  106.66430
 3934.81550    8.37400    0.00000   70.70400   70.70400  118.06880  118.06880   33.79400    0.15140    0.10840    0.10840    0.12340    0.12340    2.44830    2.44800    2.13900    0.01910  106.66850
 3934.96790    8.36800    0.00000   70.69090   70.69090  117.06490  117.06490   28.76900    0.12370    0.11770    0.11770    0.12560    0.12560    2.44400    2.44400    2.09300    0.01910  106.67280
 3935.12030    8.38000    0.00000   70.54800   70.54800  116.52640  116.52640   22.07700    0.13680    0.07820    0.07820    0.08510    0.08510    2.51570    2.51600    2.16500    0.01910  106.67700
 3935.27270    8.38000    0.00000   70.43900   70.43900  118.25590  118.25590   22.16300    0.12660    0.05040    0.05040    0.05720    0.05720    2.55980    2.56000    2.30200    0.01910  106.68120
 3935.42510    8.38600    0.00000   70.43500   70.43500  122.15790  122.15790   33.67500    0.15920    0.04110    0.04110    0.05830    0.05830    2.55800    2.55800    2.31700    0.01910  106.68550
 3935.57750    8.38600    0.00000   70.53210   70.53210  126.14230  126.14230   36.09800    0.12680    0.09920    0.09720    0.11200    0.11010    2.47330    2.47300    2.12600    0.01910  106.68970
 3935.72990    8.36800    0.00000   70.83430   70.83430  127.51830  127.51830   33.07600    0.14810    0.10440    0.10210    0.12040    0.11810    2.46010    2.46000    1.88500    0.01910  106.69390
 3935.88230    8.27800    0.00000   71.46640   71.46640  128.68020  128.68020   34.04700    0.15150    0.11530    0.11220    0.12990    0.12690    2.44510    2.44500    1.71700    0.01910  106.69820
 3936.03470    8.30800    0.00000   72.30130   72.30130  129.56120  129.56120   29.00400    0.15600    0.11470    0.11260    0.12680    0.12470    2.45000    2.45000    1.62200    0.01910  106.70240
 3936.18710    8.28400    0.00000   73.00920   73.00920  130.53020  130.53020   27.18600    0.13350    0.11860    0.11640    0.12870    0.12650    2.44700    2.44700    1.56300    0.01910  106.70660
 3936.33950    8.32600    0.00000   73.46020   73.46020  131.35130  131.35130   21.39500    0.15090    0.18900    0.17620    0.19000    0.17720    2.35040    2.35000    1.51700    0.01910  106.71090
 3936.49190    8.30200    0.00000   73.88630   73.88630  132.62160  132.62160   21.82900    0.15020    0.19460    0.18110    0.19460    0.18110    2.34300    2.34300    1.49800    0.01910  106.71510
 3936.64430    8.32600    0.00000   74.55640   74.55640  135.29530  135.29530   15.31200    0.17860    0.13970    0.13500    0.13970    0.13500    2.42970    2.43000    1.54100    0.01910  106.71930
 3936.79670    8.33800    0.00000   75.38430   75.38430  136.60210  136.60210   22.14600    0.15220    0.12810    0.12440    0.13250    0.12880    2.44100    2.44100    1.67300    0.01910  106.72360
 3936.94910    8.35000    0.00000   75.99310   75.99310  137.06080  137.06080   35.86800    0.19680    0.11060    0.10710    0.12810    0.12460    2.44800    2.44800    1.88900    0.01910  106.72780
 3937.10150    8.52400    0.00000   76.17100   76.17100  136.16360  136.16360   37.96100    0.24810    0.13400    0.12570    0.15330    0.14500    2.40820    2.40800    2.14400    0.01910  106.73210
 3937.25390    8.51800    0.00000   76.14710   76.14710  134.53450  134.53450   56.95500    0.24390    0.15070    0.13830    0.17680    0.16440    2.37110    2.37100    2.36400    0.01910  106.73630
