~Version ---------------------------------------------------
VERS.   2.0 : CWLS log ASCII Standard -VERSION 2.0
WRAP.    NO : One line per depth step
DLM . SPACE : Column Data Section Delimiter
~Well ------------------------------------------------------
STRT.m           3500.0183 : START DEPTH
STOP.m           4124.8583 : STOP DEPTH
STEP.m 0.15239999999994325 : STEP
NULL.             -9999.25 : NULL VALUE
COMP.                      : COMPANY
WELL.          Random Well : 
FLD .         Random Field : 
LOC .                      : LOCATION
PROV.                      : PROVINCE
CNTY.                      : COUNTY
STAT.                      : STATE
CTRY.                      : COUNTRY
SRVC.                      : SERVICE COMPANY
DATE.                      : DATE
UWI .             12345678 : 
API .                      : API NUMBER
~Curve Information -----------------------------------------
DEPT    .m            : 
CALI    .inches       : 
COAL    .unitless     : 
DT      .us/ft        : 
DT_LOG  .us/ft        : 
DTS     .us/ft        : 
DTS_LOG .us/ft        : 
GR      .API          : 
NPHI    .v/v_decimal  : 
PHIE    .v/v_decimal  : 
PHIEC   .v/v_decimal  : 
PHIT    .v/v_decimal  : 
PHITC   .v/v_decimal  : 
RHOB    .g/cm3        : 
RHOB_LOG.g/cm3        : 
RT      .ohm.m        : 
RW      .ohm.m        : 
TEMP    .degC         : 
~Params ----------------------------------------------------
~Other -----------------------------------------------------
~ASCII -----------------------------------------------------
 3500.01830    9.31500    0.00000   76.72920   76.72920  157.17540  157.17540   36.62100    0.15420    0.11220    0.10980    0.12090    0.11860    2.46020    2.46000    1.79100    0.02110   94.58550
 3500.17070    9.32400    0.00000   77.24730   77.24730  158.95660  158.95660   36.37400    0.16940    0.10740    0.10600    0.11590    0.11460    2.46800    2.46800    1.75600    0.02110   94.58970
 3500.32310    9.33800    0.00000   77.84620   77.84620  159.76420  159.76420   30.74800    0.17760    0.10820    0.10790    0.11270    0.11250    2.47300    2.47300    1.72000    0.02110   94.59400
 3500.47550    9.32900    0.00000   78.35710   78.35710  158.75470  158.75470   29.79500    0.17670    0.12540    0.12260    0.12920    0.12640    2.44710    2.44700    1.69600    0.02110   94.59820
 3500.62790    9.32800    0.00000   78.65600   78.65600  157.13200  157.13200   27.34600    0.16620    0.12780    0.12490    0.12990    0.12700    2.44600    2.44600    1.69700    0.02110   94.60250
 3500.78030    9.33100    0.00000   78.74900   78.74900  155.85880  155.85880   24.99700    0.17160    0.12760    0.12470    0.12800    0.12510    2.44900    2.44900    1.73800    0.02110   94.60670
 3500.93270    9.33300    0.00000   78.71190   78.71190  154.36600  154.36600   20.60900    0.16120    0.10900    0.10880    0.10900    0.10880    2.47890    2.47900    1.81300    0.02110   94.61090
 3501.08510    9.31300    0.00000   78.56890   78.56890  153.10590  153.10590   18.34900    0.15860    0.11710    0.11520    0.11710    0.11520    2.46610    2.46600    1.88700    0.02110   94.61520
 3501.23750    9.32700    0.00000   78.30280   78.30280  151.68040  151.68040   16.76600    0.16600    0.12860    0.12460    0.12860    0.12460    2.44810    2.44800    1.92400    0.02110   94.61940
 3501.38990    9.33400    0.00000   77.94080   77.94080  150.93450  150.93450   17.08600    0.17400    0.10960    0.10870    0.10960    0.10870    2.47790    2.47800    1.93300    0.02110   94.62360
 3501.54230    9.32800    0.00000   77.58790   77.58790  150.32870  150.32870   17.52200    0.15760    0.09490    0.09490    0.09490    0.09490    2.50090    2.50100    1.95000    0.02110   94.62790
 3501.69470    9.32800    0.00000   77.34800   77.34800  149.89860  149.89860   19.35700    0.16790    0.08790    0.08790    0.08790    0.08790    2.51200    2.51200    1.98700    0.02110   94.63210
 3501.84710    9.33300    0.00000   77.24400   77.24400  149.36760  149.36760   19.76100    0.15530    0.09170    0.09170    0.09170    0.09170    2.50600    2.50600    2.02300    0.02110   94.63630
 3501.99950    9.31800    0.00000   77.20800   77.20800  148.89070  148.89070   19.03800    0.16190    0.09420    0.09420    0.09420    0.09420    2.50200    2.50200    2.03200    0.02110   94.64060
 3502.15190    9.31800    0.00000   77.15190   77.15190  148.47960  148.47960   17.44500    0.15360    0.09930    0.09930    0.09930    0.09930    2.49400    2.49400    2.01700    0.02110   94.64480
 3502.30430    9.31800    0.00000   77.02490   77.02490  147.90340  147.90340   17.67800    0.15640    0.11080    0.10950    0.11080    0.10950    2.47610    2.47600    1.98700    0.02110   94.64900
 3502.45670    9.32400    0.00000   76.81190   76.81190  147.12940  147.12940   14.88300    0.17280    0.08920    0.08920    0.08920    0.08920    2.50990    2.51000    1.94600    0.02110   94.65330
 3502.60910    9.33000    0.00000   76.52890   76.52890  146.38260  146.38260   14.03600    0.15980    0.10950    0.10870    0.10950    0.10870    2.47810    2.47800    1.90800    0.02110   94.65750
 3502.76150    9.29400    0.00000   76.21890   76.21890  145.90980  145.90980   15.08600    0.15620    0.10320    0.10320    0.10320    0.10320    2.48800    2.48800    1.89800    0.02110   94.66170
 3502.91390    9.28800    0.00000   75.94290   75.94290  145.61570  145.61570   13.14100    0.16770    0.09680    0.09680    0.09680    0.09680    2.49800    2.49800    1.92200    0.02110   94.66600
 3503.06630    9.28800    0.00000   75.72590   75.72590  145.22160  145.22160   12.99900    0.14420    0.09930    0.09930    0.09930    0.09930    2.49400    2.49400    1.95700    0.02100   94.67020
 3503.21870    9.29400    0.00000   75.55190   75.55190  144.68270  144.68270   16.22500    0.15050    0.10380    0.10370    0.10380    0.10370    2.48700    2.48700    1.98100    0.02100   94.67450
 3503.37110    9.28200    0.00000   75.39990   75.39990  144.30860  144.30860   15.09100    0.16150    0.10510    0.10460    0.10510    0.10460    2.48500    2.48500    2.00400    0.02100   94.67870
 3503.52350    9.29400    0.00000   75.26690   75.26690  143.78880  143.78880   13.53400    0.13930    0.09620    0.09620    0.09620    0.09620    2.49890    2.49900    2.04200    0.02100   94.68290
 3503.67590    9.28200    0.00000   75.14590   75.14590  143.47760  143.47760   15.66400    0.15050    0.10440    0.10370    0.10440    0.10370    2.48610    2.48600    2.08800    0.02100   94.68720
 3503.82830    9.25200    0.00000   75.00590   75.00590  142.96620  142.96620   14.58800    0.14200    0.08920    0.08920    0.08920    0.08920    2.50990    2.51000    2.12900    0.02100   94.69140
 3503.98070    9.22100    0.00000   74.80290   74.80290  143.22350  143.22350   16.52200    0.14400    0.08030    0.08030    0.08030    0.08030    2.52390    2.52400    2.15700    0.02100   94.69560
 3504.13310    9.23300    0.00000   74.53790   74.53790  142.57900  142.57900   16.91700    0.14070    0.06120    0.06120    0.06120    0.06120    2.55390    2.55400    2.17100    0.02100   94.69990
 3504.28550    9.25200    0.00000   74.28090   74.28090  141.32350  141.32350   16.02300    0.15400    0.07830    0.07830    0.07830    0.07830    2.52710    2.52700    2.18200    0.02100   94.70410
 3504.43790    9.25800    0.00000   74.11100   74.11100  139.34800  139.34800   15.71500    0.15030    0.10120    0.10060    0.10120    0.10060    2.49110    2.49100    2.20300    0.02100   94.70830
 3504.59030    9.28200    0.00000   74.02200   74.02200  138.01650  138.01650   14.41200    0.14220    0.10060    0.10000    0.10060    0.10000    2.49200    2.49200    2.23200    0.02100   94.71260
 3504.74270    9.25800    0.00000   73.92690   73.92690  136.01430  136.01430   14.55400    0.13800    0.09170    0.09170    0.09170    0.09170    2.50590    2.50600    2.25400    0.02100   94.71680
 3504.89510    9.27600    0.00000   73.75490   73.75490  135.11840  135.11840   14.43600    0.14090    0.10950    0.10730    0.10950    0.10730    2.47810    2.47800    2.26200    0.02100   94.72100
 3505.04750    9.25800    0.00000   73.51390   73.51390  133.04500  133.04500   16.46600    0.13130    0.09880    0.09830    0.09880    0.09830    2.49490    2.49500    2.28500    0.02100   94.72530
 3505.19990    9.22700    0.00000   73.26990   73.26990  131.71600  131.71600   14.08100    0.14090    0.09870    0.09800    0.09870    0.09800    2.49500    2.49500    2.34900    0.02100   94.72950
 3505.35230    9.26400    0.00000   73.05590   73.05590  130.41690  130.41690   15.35400    0.14440    0.06700    0.06700    0.06700    0.06700    2.54480    2.54500    2.44100    0.02100   94.73370
 3505.50470    9.24600    0.00000   72.83290   72.83290  130.24830  130.24830   15.26200    0.13260    0.06880    0.06880    0.06880    0.06880    2.54200    2.54200    2.51700    0.02100   94.73800
 3505.65710    9.23900    0.00000   72.53480   72.53480  130.61190  130.61190   13.68300    0.12180    0.08400    0.08400    0.08400    0.08400    2.51810    2.51800    2.54700    0.02100   94.74220
 3505.80950    9.22100    0.00000   72.13580   72.13580  131.77380  131.77380   13.61600    0.12530    0.05930    0.05930    0.05930    0.05930    2.55680    2.55700    2.52100    0.02100   94.74650
 3505.96190    9.23300    0.00000   71.68180   71.68180  131.47860  131.47860   16.57800    0.12780    0.08710    0.08710    0.08710    0.08710    2.51320    2.51300    2.45300    0.02100   94.75070
 3506.11430    9.22100    0.00000   71.27890   71.27890  130.94070  130.94070   16.00300    0.14410    0.09040    0.09040    0.09040    0.09040    2.50800    2.50800    2.39700    0.02100   94.75490
