~Version ---------------------------------------------------
VERS.   2.0 : CWLS log ASCII Standard -VERSION 2.0
WRAP.    NO : One line per depth step
DLM . SPACE : Column Data Section Delimiter
~Well ------------------------------------------------------
STRT.m           3500.0183 : START DEPTH
STOP.m           4124.8583 : STOP DEPTH
STEP.m 0.15239999999994325 : STEP
NULL.             -9999.25 : NULL VALUE
COMP.                      : COMPANY
WELL.          Random Well : 
FLD .         Random Field : 
LOC .                      : LOCATION
PROV.                      : PROVINCE
CNTY.                      : COUNTY
STAT.                      : STATE
CTRY.                      : COUNTRY
SRVC.                      : SERVICE COMPANY
DATE.                      : DATE
UWI .             12345678 : 
API .                      : API NUMBER
~Curve Information -----------------------------------------
DEPT    .m            : 
CALI    .inches       : 
COAL    .unitless     : 
DT      .us/ft        : 
DT_LOG  .us/ft        : 
DTS     .us/ft        : 
DTS_LOG .us/ft        : 
GR      .API          : 
NPHI    .v/v_decimal  : 
PHIE    .v/v_decimal  : 
PHIEC   .v/v_decimal  : 
PHIT    .v/v_decimal  : 
PHITC   .v/v_decimal  : 
RHOB    .g/cm3        : 
RHOB_LOG.g/cm3        : 
RT      .ohm.m        : 
RW      .ohm.m        : 
TEMP    .degC         : 
~Params ----------------------------------------------------
~Other -----------------------------------------------------
~ASCII -----------------------------------------------------
# ...
 4087.36790    8.38600    0.00000   72.77680   72.77680  126.14700  126.14700 -999.00000    0.14700 -999.00000 -999.00000 -999.00000 -999.00000    2.48670    2.48700    1.61000 -999.00000  110.90800
 4087.52030    8.40400    0.00000   72.29580   72.29580  125.76500  125.76500 -999.00000    0.16140 -999.00000 -999.00000 -999.00000 -999.00000    2.49300    2.49300    1.66300 -999.00000  110.91220
 4087.67270    8.40400    0.00000   71.77380   71.77380  125.15500  125.15500 -999.00000    0.12880 -999.00000 -999.00000 -999.00000 -999.00000    2.51190    2.51200    1.69100 -999.00000  110.91640
 4087.82510    8.22900    0.00000   71.36790   71.36790  124.10800  124.10800 -999.00000    0.11000 -999.00000 -999.00000 -999.00000 -999.00000    2.58070    2.58100    1.68900 -999.00000  110.92070
 4087.97750    8.24100    0.00000   71.10400   71.10400  125.40300  125.40300 -999.00000    0.14690 -999.00000 -999.00000 -999.00000 -999.00000    2.54910    2.54900    1.64600 -999.00000  110.92490
 4088.12990    8.21100    0.00000   70.99510   70.99510  126.98600  126.98600 -999.00000    0.15420 -999.00000 -999.00000 -999.00000 -999.00000    2.52210    2.52200    1.55900 -999.00000  110.92910
 4088.28230    8.27800    0.00000   71.14520   71.14520  127.70500  127.70500 -999.00000    0.14450 -999.00000 -999.00000 -999.00000 -999.00000    2.48710    2.48700    1.44800 -999.00000  110.93340
 4088.43470    8.27100    0.00000   71.64430   71.64430  128.66400  128.66400 -999.00000    0.19080 -999.00000 -999.00000 -999.00000 -999.00000    2.49200    2.49200    1.32300 -999.00000  110.93760
 4088.58710    8.21100    0.00000   72.40740   72.40740  129.36100  129.36100 -999.00000    0.18110 -999.00000 -999.00000 -999.00000 -999.00000    2.44320    2.44300    1.20000 -999.00000  110.94180
 4088.73950    8.21700    0.00000   73.21940   73.21940  130.15200  130.15200 -999.00000    0.20340 -999.00000 -999.00000 -999.00000 -999.00000    2.40710    2.40700    1.11700 -999.00000  110.94610
 4088.89190    8.21100    0.00000   74.00240   74.00240  131.19000  131.19000 -999.00000    0.19260 -999.00000 -999.00000 -999.00000 -999.00000    2.39800    2.39800    1.09300 -999.00000  110.95030
 4089.04430    8.19300    0.00000   74.85740   74.85740  131.84700  131.84700 -999.00000    0.20130 -999.00000 -999.00000 -999.00000 -999.00000    2.52350    2.52400    1.10000 -999.00000  110.95450
 4089.19670    8.19300    0.00000   75.76830   75.76830  131.55400  131.55400 -999.00000    0.18060 -999.00000 -999.00000 -999.00000 -999.00000    2.50410    2.50400    1.09700 -999.00000  110.95880
 4089.34910    8.21700    0.00000   76.37400   76.37400  130.82900  130.82900 -999.00000    0.16340 -999.00000 -999.00000 -999.00000 -999.00000    2.48110    2.48100    1.07300 -999.00000  110.96300
 4089.50150    8.13310    0.00000   76.46250   76.46250  130.33500  130.33500 -999.00000    0.15220 -999.00000 -999.00000 -999.00000 -999.00000    2.30300    2.30230    1.05200 -999.00000  110.96720
 4089.65390    8.13900    0.00000   76.23470   76.23470  130.55600  130.55600 -999.00000    0.14810 -999.00000 -999.00000 -999.00000 -999.00000    2.33290    2.33300    1.05300 -999.00000  110.97150
 4089.80630    8.25300    0.00000   75.50570   75.50570  130.39400  130.39400 -999.00000    0.19580 -999.00000 -999.00000 -999.00000 -999.00000    2.36590    2.36600    1.06400 -999.00000  110.97570
 4089.95870    8.18100    0.00000   74.73590   74.73590  129.90500  129.90500 -999.00000    0.19640 -999.00000 -999.00000 -999.00000 -999.00000    2.43170    2.43200    1.05400 -999.00000  110.98000
 4090.11110    8.22900    0.00000   74.46900   74.46900  128.83200  128.83200 -999.00000    0.14130 -999.00000 -999.00000 -999.00000 -999.00000    2.45190    2.45200    1.01100 -999.00000  110.98420
 4090.26350    8.22900    0.00000   74.57900   74.57900  128.73800  128.73800 -999.00000    0.15010 -999.00000 -999.00000 -999.00000 -999.00000    2.38530    2.38500    0.97000 -999.00000  110.98840
 4090.41590    8.22900    0.00000   74.55090   74.55090  129.74400  129.74400 -999.00000    0.16730 -999.00000 -999.00000 -999.00000 -999.00000    2.39790    2.39800    0.96300 -999.00000  110.99270
 4090.56830    8.20500    0.00000   74.22690   74.22690  131.03300  131.03300 -999.00000    0.18420 -999.00000 -999.00000 -999.00000 -999.00000    2.40300    2.40300    0.98200 -999.00000  110.99690
 4090.72070    8.22300    0.00000   74.06630   74.06630  132.54100  132.54100 -999.00000    0.17270 -999.00000 -999.00000 -999.00000 -999.00000    2.41000    2.41000    0.99800 -999.00000  111.00110
 4090.87310    8.21700    0.00000   74.61650   74.61650  134.03700  134.03700 -999.00000    0.16040 -999.00000 -999.00000 -999.00000 -999.00000    2.43190    2.43200    0.99300 -999.00000  111.00540
 4091.02550    8.22300    0.00000   75.83750   75.83750  136.26800  136.26800 -999.00000    0.18680 -999.00000 -999.00000 -999.00000 -999.00000    2.42600    2.42600    0.97100 -999.00000  111.00960
 4091.17790    8.22300    0.00000   77.07630   77.07630  138.03000  138.03000 -999.00000    0.16300 -999.00000 -999.00000 -999.00000 -999.00000    2.41010    2.41000    0.94900 -999.00000  111.01380
 4091.33030    8.20500    0.00000   77.73100   77.73100  140.11900  140.11900 -999.00000    0.18730 -999.00000 -999.00000 -999.00000 -999.00000    2.41000    2.41000    0.94000 -999.00000  111.01810
 4091.48270    8.22300    0.00000   77.75890   77.75890  141.16800  141.16800 -999.00000    0.20730 -999.00000 -999.00000 -999.00000 -999.00000    2.35820    2.35800    0.95100 -999.00000  111.02230
 4091.63510    8.20500    0.00000   77.54700   77.54700  141.64800  141.64800 -999.00000    0.19680 -999.00000 -999.00000 -999.00000 -999.00000    2.35100    2.35100    0.97900 -999.00000  111.02650
 4091.78750    8.27100    0.00000   77.45100   77.45100  141.77000  141.77000 -999.00000    0.20750 -999.00000 -999.00000 -999.00000 -999.00000    2.46060    2.46100    1.01400 -999.00000  111.03080
 4091.93990    8.19900    0.00000   77.49500   77.49500  141.44000  141.44000 -999.00000    0.18190 -999.00000 -999.00000 -999.00000 -999.00000    2.47690    2.47700    1.04400 -999.00000  111.03500
 4092.09230    8.21700    0.00000   77.45690   77.45690  141.13100  141.13100 -999.00000    0.17450 -999.00000 -999.00000 -999.00000 -999.00000    2.43620    2.43600    1.05600 -999.00000  111.03920
 4092.24470    8.18100    0.00000   77.18580   77.18580  140.41700  140.41700 -999.00000    0.20920 -999.00000 -999.00000 -999.00000 -999.00000    2.39020    2.39000    1.04400 -999.00000  111.04350
 4092.39710    8.14500    0.00000   76.79090   76.79090  139.59700  139.59700 -999.00000    0.22260 -999.00000 -999.00000 -999.00000 -999.00000    2.36410    2.36400    1.01800 -999.00000  111.04770
 4092.54950    8.12100    0.00000   76.50800   76.50800  138.33800  138.33800 -999.00000    0.21900 -999.00000 -999.00000 -999.00000 -999.00000    2.35500    2.35500    0.99600 -999.00000  111.05200
 4092.70190    8.13900    0.00000   76.45300   76.45300  137.96200  137.96200 -999.00000    0.17100 -999.00000 -999.00000 -999.00000 -999.00000    2.39580    2.39600    0.98500 -999.00000  111.05620
 4092.85430    8.16300    0.00000   76.49600   76.49600  137.62700  137.62700 -999.00000    0.17830 -999.00000 -999.00000 -999.00000 -999.00000    2.41690    2.41700    0.97800 -999.00000  111.06040
 4093.00670    8.13900    0.00000   76.45200   76.45200  137.11800  137.11800 -999.00000    0.22010 -999.00000 -999.00000 -999.00000 -999.00000    2.37910    2.37900    0.96800 -999.00000  111.06470
 4093.15910    8.21700    0.00000   76.39810   76.39810  135.61000  135.61000 -999.00000    0.19420 -999.00000 -999.00000 -999.00000 -999.00000    2.34610    2.34600    0.95600 -999.00000  111.06890
 4093.31150    8.20500    0.00000   76.62430   76.62430  135.03500  135.03500 -999.00000    0.22350 -999.00000 -999.00000 -999.00000 -999.00000    2.36190    2.36200    0.94800 -999.00000  111.07310
 4093.46390    8.24100    0.00000   77.20930   77.20930  133.40200  133.40200 -999.00000    0.19190 -999.00000 -999.00000 -999.00000 -999.00000    2.39890    2.39900    0.94900 -999.00000  111.07740
