~Version ---------------------------------------------------
VERS.   2.0 : CWLS log ASCII Standard -VERSION 2.0
WRAP.    NO : One line per depth step
DLM . SPACE : Column Data Section Delimiter
~Well ------------------------------------------------------
STRT.m           3500.0183 : START DEPTH
STOP.m           4124.8583 : STOP DEPTH
STEP.m 0.15239999999994325 : STEP
NULL.             -9999.25 : NULL VALUE
COMP.                      : COMPANY
WELL.          Random Well : 
FLD .         Random Field : 
LOC .                      : LOCATION
PROV.                      : PROVINCE
CNTY.                      : COUNTY
STAT.                      : STATE
CTRY.                      : COUNTRY
SRVC.                      : SERVICE COMPANY
DATE.                      : DATE
UWI .             12345678 : 
API .                      : API NUMBER
~Curve Information -----------------------------------------
DEPT    .m            : 
CALI    .inches       : 
COAL    .unitless     : 
DT      .us/ft        : 
DT_LOG  .us/ft        : 
DTS     .us/ft        : 
DTS_LOG .us/ft        : 
GR      .API          : 
NPHI    .v/v_decimal  : 
PHIE    .v/v_decimal  : 
PHIEC   .v/v_decimal  : 
PHIT    .v/v_decimal  : 
PHITC   .v/v_decimal  : 
RHOB    .g/cm3        : 
RHOB_LOG.g/cm3        : 
RT      .ohm.m        : 
RW      .ohm.m        : 
TEMP    .degC         : 
~Params ----------------------------------------------------
~Other -----------------------------------------------------
~ASCII -----------------------------------------------------
# ...
 3737.45750    9.40200    0.00000   96.79230   96.79230  189.70760  189.70760  103.94800    0.32910    0.01200    0.01200    0.13210    0.13210    2.44200    2.44200    1.67700    0.01990  101.18390
 3737.60990    9.43800    0.00000   97.46110   97.46110  190.98430  190.98430  104.50500    0.30740    0.03140    0.03140    0.13780    0.13780    2.43300    2.43300    1.69700    0.01990  101.18820
 3737.76230    9.43200    0.00000   97.73200   97.73200  191.67820  191.67820  103.01500    0.34620    0.01360    0.01360    0.13910    0.13910    2.43100    2.43100    1.71600    0.01990  101.19240
 3737.91470    9.42600    0.00000   97.82610   97.82610  192.02800  192.02800  108.93900    0.36910    0.01000    0.01000    0.14420    0.14420    2.42300    2.42300    1.72700    0.01990  101.19670
 3738.06710    9.43800    0.00000   98.01310   98.01310  192.09280  192.09280  112.63400    0.34880    0.03930    0.03900    0.15750    0.15720    2.40210    2.40200    1.68800    0.01990  101.20090
 3738.21950    9.45600    0.00000   98.25200   98.25200  191.64760  191.64760  104.13700    0.33710    0.01000    0.01000    0.13100    0.13100    2.44380    2.44400    1.57700    0.01990  101.20510
 3738.37190    9.45000    0.00000   98.27290   98.27290  190.79760  190.79760   98.96100    0.37700    0.01000    0.01000    0.09860    0.09860    2.49480    2.49500    1.46100    0.01990  101.20940
 3738.52430    9.42600    0.00000   97.97280   97.97280  189.93370  189.93370  102.98900    0.31880    0.01000    0.01000    0.12380    0.12380    2.45520    2.45500    1.42000    0.01990  101.21360
 3738.67670    9.42600    0.00000   97.59690   97.59690  189.29860  189.29860   93.34100    0.34250    0.01000    0.01000    0.11120    0.11120    2.47490    2.47500    1.46500    0.01990  101.21780
 3738.82910    9.42000    0.00000   97.45910   97.45910  188.50170  188.50170   99.03100    0.38090    0.01000    0.01000    0.11750    0.11750    2.46500    2.46500    1.56100    0.01990  101.22210
 3738.98150    9.42600    0.00000   97.55500   97.55500  187.93470  187.93470  100.09400    0.33450    0.01010    0.01010    0.13340    0.13340    2.44010    2.44000    1.68200    0.01990  101.22630
 3739.13390    9.43200    0.00000   97.57690   97.57690  187.31070  187.31070  106.42300    0.31820    0.01000    0.01000    0.12580    0.12580    2.45200    2.45200    1.80900    0.01990  101.23050
 3739.28630    9.42600    0.00000   97.28780   97.28780  186.72760  186.72760  101.93900    0.30430    0.03570    0.03570    0.14030    0.14030    2.42910    2.42900    1.90000    0.01990  101.23480
 3739.43870    9.41400    0.00000   96.76180   96.76180  185.99660  185.99660  100.59500    0.33820    0.02590    0.02590    0.14550    0.14550    2.42100    2.42100    1.92300    0.01990  101.23900
 3739.59110    9.43800    0.00000   96.24780   96.24780  185.19370  185.19370  110.47000    0.27480    0.01860    0.01860    0.11890    0.11890    2.46280    2.46300    1.90200    0.01990  101.24320
 3739.74350    9.43800    0.00000   95.90790   95.90790  184.51080  184.51080  104.95900    0.32020    0.01000    0.01000    0.12260    0.12260    2.45700    2.45700    1.87700    0.01990  101.24750
 3739.89590    9.44400    0.00000   95.72090   95.72090  184.17590  184.17590  103.47500    0.32940    0.02060    0.02060    0.13910    0.13910    2.43110    2.43100    1.86800    0.01990  101.25170
 3740.04830    9.43800    0.00000   95.56990   95.56990  183.89490  183.89490  103.06200    0.28530    0.01860    0.01860    0.12270    0.12270    2.45690    2.45700    1.87200    0.01990  101.25590
 3740.20070    9.41400    0.00000   95.36190   95.36190  183.59190  183.59190  104.46800    0.31810    0.01000    0.01000    0.12390    0.12390    2.45500    2.45500    1.88000    0.01990  101.26020
 3740.35310    9.42000    0.00000   95.05680   95.05680  183.36100  183.36100  105.49700    0.31440    0.01200    0.01200    0.12830    0.12830    2.44800    2.44800    1.88600    0.01990  101.26440
 3740.50550    9.43800    0.00000   94.66580   94.66580  183.44020  183.44020  101.87200    0.30910    0.01000    0.01000    0.11190    0.11190    2.47390    2.47400    1.89500    0.01990  101.26870
 3740.65790    9.42000    0.00000   94.29090   94.29090  183.91550  183.91550  100.31300    0.30790    0.01000    0.01000    0.11500    0.11500    2.46900    2.46900    1.91700    0.01990  101.27290
 3740.81030    9.43200    0.00000   94.07800   94.07800  184.90040  184.90040  100.93000    0.33610    0.01000    0.01000    0.05740    0.05740    2.55960    2.56000    1.96200    0.01990  101.27710
 3740.96270    9.39000    0.00000   94.10510   94.10510  185.71490  185.71490  102.77500    0.30520    0.01000    0.01000    0.04010    0.04010    2.58690    2.58700    2.03400    0.01990  101.28140
 3741.11510    9.43200    0.00000   94.32310   94.32310  185.50960  185.50960   98.45200    0.32960    0.01000    0.01000    0.10900    0.10900    2.47840    2.47800    2.13200    0.01990  101.28560
 3741.26750    9.41400    0.00000   94.62710   94.62710  184.61530  184.61530  104.85100    0.33520    0.03090    0.03020    0.14850    0.14780    2.41620    2.41600    2.24400    0.01990  101.28980
 3741.41990    9.42000    0.00000   94.93910   94.93910  183.19750  183.19750  101.33000    0.35230    0.02210    0.02160    0.14870    0.14810    2.41600    2.41600    2.32800    0.01990  101.29410
 3741.57230    9.40800    0.00000   95.20710   95.20710  182.16770  182.16770  106.71000    0.28650    0.01000    0.01000    0.10750    0.10750    2.48070    2.48100    2.34300    0.01990  101.29830
 3741.72470    9.42000    0.00000   95.36100   95.36100  181.44110  181.44110   94.63700    0.27520    0.02470    0.02470    0.12380    0.12380    2.45510    2.45500    2.29200    0.01990  101.30250
 3741.87710    9.42600    0.00000   95.29180   95.29180  181.76150  181.76150   97.18300    0.27400    0.02430    0.02430    0.12320    0.12320    2.45600    2.45600    2.21200    0.01990  101.30680
 3742.02950    9.44400    0.00000   94.96380   94.96380  182.88250  182.88250   93.19900    0.29300    0.01630    0.01630    0.12450    0.12450    2.45400    2.45400    2.13100    0.01990  101.31100
 3742.18190    9.48000    0.00000   94.50890   94.50890  183.97550  183.97550   95.96500    0.29840    0.01000    0.01000    0.11440    0.11440    2.46990    2.47000    2.06600    0.01990  101.31520
 3742.33430    9.48000    0.00000   94.16000   94.16000  185.06630  185.06630   92.88900    0.28110    0.01000    0.01000    0.11560    0.11560    2.46800    2.46800    2.03000    0.01990  101.31950
 3742.48670    9.43800    0.00000   94.08010   94.08010  185.77740  185.77740  102.19500    0.26830    0.01650    0.01650    0.11630    0.11630    2.46700    2.46700    2.02800    0.01990  101.32370
 3742.63910    9.40200    0.00000   94.26120   94.26120  186.58940  186.58940   96.78600    0.36050    0.01730    0.01730    0.14030    0.14030    2.42920    2.42900    2.03900    0.01990  101.32790
 3742.79150    9.43200    0.00000   94.62520   94.62520  187.52830  187.52830  101.48300    0.30280    0.03450    0.03450    0.14040    0.14040    2.42900    2.42900    2.02900    0.01990  101.33220
 3742.94390    9.42000    0.00000   95.13530   95.13530  188.19710  188.19710  107.38300    0.38350    0.01000    0.01000    0.14040    0.14030    2.42900    2.42900    1.97200    0.01990  101.33640
 3743.09630    9.41400    0.00000   95.78230   95.78230  188.42090  188.42090  109.81500    0.30170    0.03780    0.03780    0.14230    0.14230    2.42600    2.42600    1.88900    0.01990  101.34070
 3743.24870    9.41400    0.00000   96.47020   96.47020  188.19780  188.19780  102.95600    0.32800    0.01000    0.01000    0.13280    0.13280    2.44090    2.44100    1.82400    0.01990  101.34490
 3743.40110    9.41400    0.00000   96.97510   96.97510  187.66980  187.66980   97.22200    0.31010    0.03790    0.03790    0.14540    0.14540    2.42110    2.42100    1.79800    0.01990  101.34910
 3743.55350    9.42000    0.00000   97.08890   97.08890  187.17570  187.17570  102.56300    0.33950    0.01120    0.01120    0.13790    0.13790    2.43300    2.43300    1.80600    0.01990  101.35340
