~Version ---------------------------------------------------
VERS.   2.0 : CWLS log ASCII Standard -VERSION 2.0
WRAP.    NO : One line per depth step
DLM . SPACE : Column Data Section Delimiter
~Well ------------------------------------------------------
STRT.m           3500.0183 : START DEPTH
STOP.m           4124.8583 : STOP DEPTH
STEP.m 0.15239999999994325 : STEP
NULL.             -9999.25 : NULL VALUE
COMP.                      : COMPANY
WELL.          Random Well : 
FLD .         Random Field : 
LOC .                      : LOCATION
PROV.                      : PROVINCE
CNTY.                      : COUNTY
STAT.                      : STATE
CTRY.                      : COUNTRY
SRVC.                      : SERVICE COMPANY
DATE.                      : DATE
UWI .             12345678 : 
API .                      : API NUMBER
~Curve Information -----------------------------------------
DEPT    .m            : 
CALI    .inches       : 
COAL    .unitless     : 
DT      .us/ft        : 
DT_LOG  .us/ft        : 
DTS     .us/ft        : 
DTS_LOG .us/ft        : 
GR      .API          : 
NPHI    .v/v_decimal  : 
PHIE    .v/v_decimal  : 
PHIEC   .v/v_decimal  : 
PHIT    .v/v_decimal  : 
PHITC   .v/v_decimal  : 
RHOB    .g/cm3        : 
RHOB_LOG.g/cm3        : 
RT      .ohm.m        : 
RW      .ohm.m        : 
TEMP    .degC         : 
~Params ----------------------------------------------------
~Other -----------------------------------------------------
~ASCII -----------------------------------------------------
# ...
 3968.64830    8.14500    0.00000   67.52780   67.52780  126.25240  126.25240   53.59300    0.14180    0.13800    0.13590    0.14420    0.14220    2.42240    2.42200    1.11500    0.01890  107.60870
 3968.80070    8.13300    0.00000   69.31030   69.31030  128.68730  128.68730   55.37700    0.14850    0.14440    0.14430    0.15080    0.15070    2.41200    2.41200    0.85400    0.01890  107.61300
 3968.95310    8.13300    0.00000   72.22140   72.22140  130.40120  130.40120   45.09100    0.17820    0.16960    0.16780    0.17670    0.17490    2.37120    2.37100    0.69500    0.01890  107.61720
 3969.10550    8.13300    0.00000   75.39010   75.39010  131.78990  131.78990   42.71600    0.19510    0.19390    0.19050    0.20020    0.19670    2.33410    2.33400    0.60000    0.01890  107.62140
 3969.25790    8.14500    0.00000   77.90270   77.90270  131.27170  131.27170   39.38800    0.17660    0.18680    0.18610    0.19140    0.19070    2.34790    2.34800    0.55100    0.01890  107.62570
 3969.41030    8.20500    0.00000   79.39130   79.39130  129.81180  129.81180   37.70400    0.19120    0.15870    0.15870    0.16740    0.16740    2.38580    2.38600    0.54100    0.01890  107.62990
 3969.56270    8.19300    0.00000   79.96390   79.96390  128.80870  128.80870   37.24300    0.16240    0.18100    0.18100    0.18440    0.18440    2.35910    2.35900    0.56400    0.01890  107.63410
 3969.71510    8.17500    0.00000   79.78260   79.78260  126.89920  126.89920   36.78600    0.14340    0.15570    0.15570    0.15980    0.15980    2.39780    2.39800    0.61700    0.01890  107.63840
 3969.86750    8.38600    0.00000   78.81720   78.81720  127.77330  127.77330   35.60200    0.14220    0.12960    0.12960    0.13700    0.13700    2.43390    2.43400    0.71800    0.01890  107.64260
 3970.01990    8.39200    0.00000   76.97490   76.97490  123.68410  123.68410   36.79300    0.13110    0.12110    0.12110    0.12810    0.12810    2.44790    2.44800    0.91100    0.01890  107.64690
 3970.17230    8.47600    0.00000   74.40470   74.40470  124.47370  124.47370   30.02800    0.13390    0.01000    0.01000    0.01000    0.01000    2.63820    2.63900    1.22900    0.01890  107.65110
 3970.32470    8.47600    0.00000   71.58490   71.58490  117.80550  117.80550   28.38500    0.08730    0.01000    0.01000    0.01000    0.01000    2.66190    2.66200    1.64700    0.01890  107.65530
 3970.47710    8.53000    0.00000   69.07820   69.07820  120.80260  120.80260   25.74800    0.07210    0.01000    0.01000    0.01000    0.01000    2.73970    2.74000    2.07500    0.01890  107.65960
 3970.62950    8.53000    0.00000   67.28460   67.28460  123.85260  123.85260   23.96500    0.06090    0.01000    0.01000    0.01000    0.01000    2.73700    2.73700    2.29500    0.01890  107.66380
 3970.78190    8.45200    0.00000   66.42510   66.42510  127.22230  127.22230   28.61200    0.06780    0.03990    0.03990    0.04270    0.04270    2.58260    2.58200    2.06600    0.01890  107.66800
 3970.93430    8.35000    0.00000   66.58750   66.58750  128.67510  128.67510   24.70400    0.11090    0.13350    0.12930    0.13400    0.12980    2.43860    2.43800    1.61700    0.01890  107.67230
 3971.08670    8.37400    0.00000   67.72590   67.72590  128.98720  128.98720   29.70200    0.12160    0.14010    0.13710    0.14320    0.14020    2.42410    2.42400    1.23600    0.01890  107.67650
 3971.23910    8.30800    0.00000   69.67810   69.67810  130.09410  130.09410   34.86400    0.13580    0.19560    0.18620    0.19560    0.18620    2.34130    2.34100    0.98500    0.01890  107.68070
 3971.39150    8.36200    0.00000   72.16810   72.16810  130.78440  130.78440   37.25000    0.16150    0.18270    0.17700    0.18570    0.18000    2.35690    2.35700    0.84900    0.01890  107.68500
 3971.54390    8.38600    0.00000   74.72590   74.72590  132.84000  132.84000   43.34600    0.17290    0.20200    0.19390    0.20400    0.19590    2.32810    2.32800    0.79900    0.01890  107.68920
 3971.69630    8.35000    0.00000   76.78650   76.78650  132.98700  132.98700   44.94600    0.16370    0.15190    0.15080    0.15920    0.15810    2.39870    2.39900    0.81900    0.01890  107.69340
 3971.84870    8.33200    0.00000   78.00020   78.00020  132.84570  132.84570   47.82100    0.17240    0.11480    0.11480    0.12810    0.12810    2.44780    2.44800    0.89900    0.01890  107.69770
 3972.00110    8.37380    0.00000   78.37940   78.37940  131.45600  131.45600   56.83940    0.15970    0.11310    0.11310    0.12490    0.12490    2.45290    2.45290    1.02100    0.01890  107.70190
 3972.15350    8.34400    0.00000   78.18880   78.18880  131.66320  131.66320   56.25700    0.15610    0.11940    0.11880    0.12990    0.12930    2.44500    2.44500    1.15100    0.01890  107.70610
 3972.30590    8.30200    0.00000   77.75980   77.75980  132.62340  132.62340   57.02400    0.17500    0.13320    0.12930    0.14440    0.14060    2.42210    2.42200    1.27300    0.01890  107.71040
 3972.45830    8.28400    0.00000   77.36790   77.36790  134.59830  134.59830   54.03500    0.16410    0.13860    0.13380    0.14760    0.14290    2.41700    2.41700    1.35400    0.01890  107.71460
 3972.61070    8.27100    0.00000   77.18310   77.18310  136.53240  136.53240   57.52100    0.16170    0.11940    0.11700    0.13060    0.12830    2.44390    2.44400    1.35900    0.01890  107.71890
 3972.76310    8.33200    0.00000   77.33920   77.33920  139.00650  139.00650   55.66600    0.17240    0.13730    0.13280    0.14760    0.14310    2.41710    2.41700    1.29900    0.01890  107.72310
 3972.91550    8.33200    0.00000   77.91440   77.91440  141.92020  141.92020   49.14100    0.16650    0.14410    0.13980    0.15270    0.14840    2.40900    2.40900    1.18900    0.01890  107.72730
 3973.06790    8.32000    0.00000   78.85250   78.85250  143.10300  143.10300   52.81600    0.17510    0.15580    0.15120    0.16410    0.15950    2.39110    2.39100    1.03100    0.01890  107.73160
 3973.22030    8.32000    0.00000   80.04060   80.04060  143.00090  143.00090   47.84600    0.18090    0.18260    0.17620    0.18810    0.18180    2.35310    2.35300    0.86000    0.01890  107.73580
 3973.37270    8.29000    0.00000   81.32640   81.32640  142.56180  142.56180   48.37600    0.18070    0.21460    0.20570    0.21600    0.20710    2.30920    2.30900    0.72500    0.01890  107.74000
 3973.52510    8.32000    0.00000   82.36610   82.36610  141.71270  141.71270   44.04000    0.21700    0.20980    0.20230    0.21670    0.20920    2.30800    2.30800    0.65700    0.01890  107.74430
 3973.67750    8.35000    0.00000   82.66470   82.66470  140.17030  140.17030   45.94900    0.22200    0.20180    0.19500    0.21040    0.20360    2.31800    2.31800    0.66500    0.01890  107.74850
 3973.82990    8.44600    0.00000   81.93830   81.93830  136.03350  136.03350   44.94400    0.21230    0.12280    0.12280    0.13650    0.13650    2.43450    2.43500    0.73700    0.01890  107.75270
 3973.98230    8.43400    0.00000   80.32710   80.32710  133.15540  133.15540   48.21000    0.17270    0.12940    0.12940    0.14070    0.14070    2.42800    2.42800    0.84000    0.01890  107.75700
 3974.13470    8.45800    0.00000   78.29610   78.29610  129.86280  129.86280   52.08900    0.17470    0.01120    0.01120    0.02960    0.02960    2.60330    2.60400    0.93700    0.01890  107.76120
 3974.28710    8.43400    0.00000   76.29720   76.29720  128.46950  128.46950   45.20200    0.16870    0.04820    0.04820    0.06200    0.06200    2.55220    2.55200    1.00900    0.01890  107.76540
 3974.43950    8.45200    0.00000   74.48130   74.48130  125.81700  125.81700   48.34400    0.13670    0.03240    0.03240    0.04820    0.04820    2.57390    2.57400    1.02300    0.01890  107.76970
 3974.59190    8.40400    0.00000   72.81740   72.81740  126.04760  126.04760   35.73300    0.14980    0.10630    0.10630    0.11380    0.11380    2.47040    2.47000    0.94700    0.01890  107.77390
 3974.74430    8.39800    0.00000   71.46170   71.46170  123.73400  123.73400   31.50300    0.14110    0.12950    0.12950    0.13430    0.13430    2.43810    2.43800    0.82600    0.01890  107.77810
