~Version ---------------------------------------------------
VERS.   2.0 : CWLS log ASCII Standard -VERSION 2.0
WRAP.    NO : One line per depth step
DLM . SPACE : Column Data Section Delimiter
~Well ------------------------------------------------------
STRT.m           3500.0183 : START DEPTH
STOP.m           4124.8583 : STOP DEPTH
STEP.m 0.15239999999994325 : STEP
NULL.             -9999.25 : NULL VALUE
COMP.                      : COMPANY
WELL.          Random Well : 
FLD .         Random Field : 
LOC .                      : LOCATION
PROV.                      : PROVINCE
CNTY.                      : COUNTY
STAT.                      : STATE
CTRY.                      : COUNTRY
SRVC.                      : SERVICE COMPANY
DATE.                      : DATE
UWI .             12345678 : 
API .                      : API NUMBER
~Curve Information -----------------------------------------
DEPT    .m            : 
CALI    .inches       : 
COAL    .unitless     : 
DT      .us/ft        : 
DT_LOG  .us/ft        : 
DTS     .us/ft        : 
DTS_LOG .us/ft        : 
GR      .API          : 
NPHI    .v/v_decimal  : 
PHIE    .v/v_decimal  : 
PHIEC   .v/v_decimal  : 
PHIT    .v/v_decimal  : 
PHITC   .v/v_decimal  : 
RHOB    .g/cm3        : 
RHOB_LOG.g/cm3        : 
RT      .ohm.m        : 
RW      .ohm.m        : 
TEMP    .degC         : 
~Params ----------------------------------------------------
~Other -----------------------------------------------------
~ASCII -----------------------------------------------------
# ...
 3893.66750    8.23500    0.00000   80.86840   80.86840  128.79790  128.79790   29.35200    0.14150    0.15050    0.15050    0.15230    0.15230    2.37390    2.37400   15.04500    0.01930  105.52500
 3893.81990    8.23500    0.00000   79.54750   79.54750  128.51210  128.51210   28.24500    0.13690    0.14330    0.14330    0.14560    0.14560    2.38600    2.38600   17.25400    0.01930  105.52930
 3893.97230    8.27100    0.00000   78.36960   78.36960  129.07950  129.07950   26.45100    0.15530    0.13020    0.13020    0.13800    0.13800    2.40190    2.40200   17.15400    0.01920  105.53350
 3894.12470    8.25900    0.00000   77.37270   77.37270  130.82250  130.82250   29.87200    0.15370    0.15280    0.15280    0.15610    0.15610    2.36710    2.36700   15.05700    0.01920  105.53770
 3894.27710    8.27800    0.00000   76.65790   76.65790  132.58460  132.58460   33.61200    0.16070    0.13700    0.13700    0.14450    0.14450    2.39090    2.39100   13.30300    0.01920  105.54200
 3894.42950    8.27100    0.00000   76.41520   76.41520  134.80710  134.80710   46.57200    0.21140    0.12400    0.12400    0.14220    0.14220    2.39800    2.39800   12.63500    0.01920  105.54620
 3894.58190    8.28400    0.00000   76.84650   76.84650  135.29140  135.29140   47.84500    0.19460    0.13690    0.13690    0.15000    0.15000    2.38210    2.38200   12.81700    0.01920  105.55040
 3894.73430    8.28400    0.00000   78.00480   78.00480  136.88870  136.88870   56.05900    0.23090    0.13890    0.13890    0.15750    0.15750    2.36910    2.36900   13.08500    0.01920  105.55470
 3894.88670    8.29600    0.00000   79.70290   79.70290  139.42890  139.42890   55.72400    0.19500    0.15410    0.15410    0.16410    0.16410    2.35510    2.35500   12.22500    0.01920  105.55890
 3895.03910    8.32000    0.00000   81.61980   81.61980  142.81470  142.81470   54.94700    0.22500    0.18230    0.18230    0.19200    0.19200    2.30360    2.30340    9.82200    0.01920  105.56310
 3895.19150    8.30800    0.00000   83.47370   83.47370  145.34650  145.34650   42.03000    0.21030    0.21200    0.21200    0.21400    0.21400    2.26220    2.26200    7.47800    0.01920  105.56740
 3895.34390    8.33800    0.00000   85.11760   85.11760  147.25830  147.25830   40.95100    0.21930    0.21320    0.21320    0.21650    0.21650    2.25900    2.25900    6.35900    0.01920  105.57160
 3895.49630    8.32600    0.00000   86.53650   86.53650  148.21240  148.21240   38.29700    0.20790    0.22710    0.22710    0.22710    0.22710    2.23810    2.23800    6.40600    0.01920  105.57580
 3895.64870    8.30800    0.00000   87.74740   87.74740  149.46510  149.46510   34.42500    0.23220    0.22050    0.22050    0.22450    0.22450    2.24300    2.24300    7.24600    0.01920  105.58010
 3895.80110    8.27100    0.00000   88.74830   88.74830  149.90620  149.90620   36.10300    0.22850    0.22620    0.22620    0.22840    0.22840    2.23400    2.23400    8.37000    0.01920  105.58430
 3895.95350    8.27100    0.00000   89.48010   89.48010  150.50000  150.50000   37.92000    0.22130    0.23510    0.23510    0.23510    0.23510    2.22010    2.22000    9.29800    0.01920  105.58850
 3896.10590    8.27100    0.00000   89.80990   89.80990  150.51690  150.51690   37.14200    0.24330    0.22060    0.22060    0.22620    0.22620    2.23790    2.23800    9.88300    0.01920  105.59280
 3896.25830    8.27100    0.00000   89.63470   89.63470  150.02330  150.02330   34.87300    0.21200    0.23100    0.23100    0.23100    0.23100    2.22700    2.22700   10.18800    0.01920  105.59700
 3896.41070    8.28400    0.00000   89.03160   89.03160  147.53850  147.53850   35.07300    0.21250    0.23260    0.23260    0.23260    0.23260    2.22400    2.22400   10.30500    0.01920  105.60130
 3896.56310    8.27100    0.00000   88.20360   88.20360  145.81770  145.81770   36.99800    0.21400    0.19450    0.19450    0.20020    0.20020    2.28680    2.28700   10.36200    0.01920  105.60550
 3896.71550    8.26500    0.00000   87.32160   87.32160  144.90510  144.90510   37.03000    0.21200    0.20540    0.20540    0.20870    0.20870    2.27010    2.27000   10.45400    0.01920  105.60970
 3896.86790    8.24100    0.00000   86.43160   86.43160  145.22720  145.22720   35.69000    0.20080    0.20660    0.20660    0.20780    0.20780    2.27100    2.27100   10.61700    0.01920  105.61400
 3897.02030    8.24100    0.00000   85.47560   85.47560  146.11050  146.11050   34.14200    0.23300    0.19480    0.19480    0.20350    0.20350    2.28100    2.28100   10.87400    0.01920  105.61820
 3897.17270    8.26500    0.00000   84.48060   84.48060  144.40190  144.40190   35.78000    0.21580    0.19820    0.19820    0.20350    0.20350    2.28000    2.28000   11.20900    0.01920  105.62240
 3897.32510    8.25900    0.00000   83.61770   83.61770  143.95360  143.95360   36.08900    0.19240    0.19890    0.19890    0.20010    0.20010    2.28500    2.28500   11.54300    0.01920  105.62670
 3897.47750    8.24100    0.00000   82.95880   82.95880  142.64990  142.64990   37.40600    0.22030    0.19410    0.19410    0.20080    0.20080    2.28500    2.28500   11.81800    0.01920  105.63090
 3897.62990    8.22300    0.00000   82.40780   82.40780  142.32310  142.32310   36.27300    0.18090    0.21140    0.21140    0.21140    0.21140    2.26310    2.26300   12.04400    0.01920  105.63510
 3897.78230    8.25300    0.00000   81.83670   81.83670  142.72160  142.72160   38.21800    0.19020    0.19780    0.19780    0.19890    0.19890    2.28690    2.28700   12.28800    0.01920  105.63940
 3897.93470    8.23500    0.00000   81.13860   81.13860  144.95520  144.95520   35.38900    0.16650    0.19640    0.19640    0.19640    0.19640    2.29100    2.29100   12.62200    0.01920  105.64360
 3898.08710    8.19900    0.00000   80.25760   80.25760  145.69600  145.69600   34.60000    0.17550    0.18620    0.18620    0.18700    0.18700    2.30890    2.30900   13.03700    0.01920  105.64780
 3898.23950    8.21700    0.00000   79.27960   79.27960  145.56190  145.56190   34.12300    0.17460    0.18990    0.18990    0.18990    0.18990    2.30300    2.30300   13.38300    0.01920  105.65210
 3898.39190    8.24700    0.00000   78.41080   78.41080  145.24610  145.24610   35.15300    0.17530    0.12500    0.12500    0.13730    0.13730    2.40560    2.40600   13.37700    0.01920  105.65630
 3898.54430    8.22900    0.00000   77.83990   77.83990  145.48100  145.48100   32.35100    0.18660    0.11720    0.11720    0.13280    0.13280    2.41500    2.41500   12.93400    0.01920  105.66050
 3898.69670    8.21100    0.00000   77.64300   77.64300  145.41980  145.41980   28.88600    0.18620    0.15080    0.15080    0.16010    0.16010    2.36220    2.36200   12.71900    0.01920  105.66480
 3898.84910    8.21100    0.00000   77.72710   77.72710  144.88280  144.88280   27.28500    0.20160    0.14030    0.14030    0.15180    0.15180    2.37790    2.37800   13.66600    0.01920  105.66900
 3899.00150    8.24060    0.00000   77.97630   77.97630  144.30510  144.30510   26.65550    0.20300    0.25240    0.25240    0.25240    0.25240    2.18390    2.18320   15.87860    0.01920  105.67330
 3899.15390    8.20500    0.00000   78.45940   78.45940  144.82580  144.82580   26.42000    0.20270    0.24470    0.24470    0.24470    0.24470    2.19790    2.19800   17.45600    0.01920  105.67750
 3899.30630    8.19900    0.00000   79.32450   79.32450  144.10960  144.10960   22.33200    0.18760    0.21260    0.21260    0.21260    0.21260    2.25880    2.25900   16.98200    0.01920  105.68170
 3899.45870    8.17500    0.00000   80.44640   80.44640  142.74740  142.74740   23.01500    0.19630    0.24260    0.24260    0.24260    0.24260    2.20220    2.20200   16.46900    0.01920  105.68600
 3899.61110    8.19900    0.00000   81.45320   81.45320  140.37020  140.37020   18.95100    0.16180    0.24310    0.24310    0.24310    0.24310    2.20100    2.20100   17.53800    0.01920  105.69020
 3899.76350    8.21700    0.00000   82.03110   82.03110  137.27220  137.27220   16.77500    0.17410    0.23640    0.23640    0.23640    0.23640    2.21300    2.21300   20.08500    0.01920  105.69440
