~Version ---------------------------------------------------
VERS.   2.0 : CWLS log ASCII Standard -VERSION 2.0
WRAP.    NO : One line per depth step
DLM . SPACE : Column Data Section Delimiter
~Well ------------------------------------------------------
STRT.m           3500.0183 : START DEPTH
STOP.m           4124.8583 : STOP DEPTH
STEP.m 0.15239999999994325 : STEP
NULL.             -9999.25 : NULL VALUE
COMP.                      : COMPANY
WELL.          Random Well : 
FLD .         Random Field : 
LOC .                      : LOCATION
PROV.                      : PROVINCE
CNTY.                      : COUNTY
STAT.                      : STATE
CTRY.                      : COUNTRY
SRVC.                      : SERVICE COMPANY
DATE.                      : DATE
UWI .             12345678 : 
API .                      : API NUMBER
~Curve Information -----------------------------------------
DEPT    .m            : 
CALI    .inches       : 
COAL    .unitless     : 
DT      .us/ft        : 
DT_LOG  .us/ft        : 
DTS     .us/ft        : 
DTS_LOG .us/ft        : 
GR      .API          : 
NPHI    .v/v_decimal  : 
PHIE    .v/v_decimal  : 
PHIEC   .v/v_decimal  : 
PHIT    .v/v_decimal  : 
PHITC   .v/v_decimal  : 
RHOB    .g/cm3        : 
RHOB_LOG.g/cm3        : 
RT      .ohm.m        : 
RW      .ohm.m        : 
TEMP    .degC         : 
~Params ----------------------------------------------------
~Other -----------------------------------------------------
~ASCII -----------------------------------------------------
# ...
 3581.24750    8.86700    0.00000   61.64010   61.64010  121.67370  121.67370   14.12800    0.05500    0.04070    0.04070    0.04070    0.04070    2.58600    2.58600    6.57000    0.02070   96.84290
 3581.39990    8.89700    0.00000   61.83910   61.83910  121.26340  121.26340   16.29300    0.09290    0.06040    0.05970    0.06040    0.05970    2.55510    2.55500    6.49600    0.02070   96.84710
 3581.55230    8.90900    0.00000   62.13810   62.13810  118.84600  118.84600   17.34200    0.09270    0.04520    0.04520    0.04520    0.04520    2.57890    2.57900    6.06800    0.02070   96.85130
 3581.70470    8.95700    0.00000   62.43010   62.43010  118.84330  118.84330   21.45200    0.09130    0.04260    0.04260    0.04260    0.04260    2.58300    2.58300    5.38400    0.02070   96.85560
 3581.85710    8.99300    0.00000   62.65510   62.65510  119.29450  119.29450   18.05900    0.11380    0.04960    0.04960    0.04960    0.04960    2.57200    2.57200    4.79200    0.02070   96.85980
 3582.00950    8.94500    0.00000   62.86510   62.86510  121.55030  121.55030   15.19200    0.10030    0.06550    0.06550    0.06550    0.06550    2.54710    2.54700    4.44400    0.02070   96.86400
 3582.16190    8.93900    0.00000   63.17620   63.17620  123.42200  123.42200   16.11300    0.11450    0.05980    0.05980    0.05980    0.05980    2.55600    2.55600    4.22600    0.02070   96.86830
 3582.31430    8.96300    0.00000   63.61720   63.61720  124.95830  124.95830   14.89600    0.11060    0.07500    0.07450    0.07500    0.07450    2.53210    2.53200    4.00400    0.02070   96.87250
 3582.46670    9.01100    0.00000   64.07410   64.07410  126.90750  126.90750   11.64800    0.11040    0.08710    0.08490    0.08710    0.08490    2.51310    2.51300    3.80400    0.02070   96.87670
 3582.61910    9.04100    0.00000   64.40300   64.40300  127.67560  127.67560    8.01500    0.10490    0.09990    0.09570    0.09990    0.09570    2.49310    2.49300    3.69100    0.02070   96.88100
 3582.77150    9.02900    0.00000   64.49390   64.49390  128.56340  128.56340    9.14500    0.11120    0.11450    0.10790    0.11450    0.10790    2.47010    2.47000    3.66700    0.02070   96.88520
 3582.92390    9.03500    0.00000   64.30390   64.30390  129.13890  129.13890    7.02000    0.10330    0.11900    0.11160    0.11900    0.11160    2.46300    2.46300    3.71300    0.02070   96.88950
 3583.07630    9.03500    0.00000   63.97090   63.97090  128.90950  128.90950    9.25200    0.10570    0.09620    0.09240    0.09620    0.09240    2.49890    2.49900    3.80900    0.02070   96.89370
 3583.22870    9.05300    0.00000   63.84220   63.84220  131.08990  131.08990    7.02600    0.08640    0.09350    0.09010    0.09350    0.09010    2.50300    2.50300    3.88900    0.02070   96.89790
 3583.38110    9.01100    0.00000   64.23540   64.23540  135.34740  135.34740   11.65400    0.08820    0.07900    0.07810    0.07900    0.07810    2.52590    2.52600    3.78600    0.02070   96.90220
 3583.53350    9.02900    0.00000   65.20960   65.20960  141.85500  141.85500   23.07600    0.09460    0.05290    0.05290    0.05290    0.05290    2.56680    2.56700    3.42100    0.02070   96.90640
 3583.68590    9.02900    0.00000   66.60270   66.60270  147.82720  147.82720   28.86700    0.09910    0.04650    0.04650    0.04900    0.04900    2.57300    2.57300    2.99400    0.02070   96.91060
 3583.83830    9.05300    0.00000   68.24580   68.24580  152.60740  152.60740   29.76100    0.15480    0.04660    0.04660    0.04960    0.04960    2.57200    2.57200    2.69100    0.02070   96.91490
 3583.99070    9.08900    0.00000   70.12090   70.12090  156.19390  156.19390   30.62400    0.13320    0.03410    0.03410    0.03760    0.03760    2.59090    2.59100    2.50100    0.02070   96.91910
 3584.14310    9.06500    0.00000   72.22090   72.22090  157.52640  157.52640   34.20800    0.15720    0.02870    0.02870    0.03440    0.03440    2.59600    2.59600    2.36000    0.02060   96.92330
 3584.29550    9.09500    0.00000   74.26170   74.26170  156.69170  156.69170   34.42700    0.14620    0.03560    0.03560    0.04130    0.04130    2.58500    2.58500    2.28500    0.02060   96.92760
 3584.44790    9.06500    0.00000   75.73730   75.73730  154.77300  154.77300   32.70000    0.15010    0.05180    0.05180    0.05660    0.05660    2.56110    2.56100    2.32700    0.02060   96.93180
 3584.60030    9.01700    0.00000   76.35790   76.35790  151.75070  151.75070   30.61400    0.11940    0.03350    0.03350    0.03700    0.03700    2.59190    2.59200    2.50400    0.02060   96.93600
 3584.75270    9.03500    0.00000   76.24480   76.24480  149.75790  149.75790   25.47900    0.11830    0.04650    0.04650    0.04700    0.04700    2.57610    2.57600    2.77900    0.02060   96.94030
 3584.90510    9.05900    0.00000   75.70370   75.70370  148.11560  148.11560   22.47800    0.11220    0.01790    0.01790    0.01790    0.01790    2.62180    2.62200    3.03800    0.02060   96.94450
 3585.05750    9.08900    0.00000   74.99970   74.99970  147.45300  147.45300   22.80500    0.11560    0.03810    0.03810    0.03810    0.03810    2.59010    2.59000    3.16400    0.02060   96.94880
 3585.20990    9.09500    0.00000   74.30580   74.30580  147.37370  147.37370   25.49700    0.10500    0.04340    0.04340    0.04390    0.04390    2.58100    2.58100    3.15500    0.02060   96.95300
 3585.36230    9.10100    0.00000   73.79800   73.79800  146.89330  146.89330   25.45200    0.10610    0.01680    0.01680    0.01730    0.01730    2.62280    2.62300    3.04800    0.02060   96.95720
 3585.51470    9.10700    0.00000   73.71620   73.71620  147.34890  147.34890   29.78400    0.13250    0.03380    0.03380    0.03680    0.03680    2.59210    2.59200    2.86600    0.02060   96.96150
 3585.66710    9.08900    0.00000   74.14830   74.14830  148.72450  148.72450   33.00500    0.11590    0.04340    0.04340    0.04830    0.04830    2.57410    2.57400    2.66300    0.02060   96.96570
 3585.81950    8.98700    0.00000   74.81420   74.81420  149.40050  149.40050   32.25900    0.13310    0.05530    0.05530    0.05980    0.05980    2.55610    2.55600    2.52000    0.02060   96.96990
 3585.97190    9.02900    0.00000   75.25200   75.25200  148.71130  148.71130   30.26800    0.11720    0.04130    0.04130    0.04460    0.04460    2.57990    2.58000    2.49700    0.02060   96.97420
 3586.12430    9.02300    0.00000   75.18370   75.18370  144.73730  144.73730   29.17700    0.10750    0.05650    0.05650    0.05910    0.05910    2.55710    2.55700    2.64000    0.02060   96.97840
 3586.27670    9.01700    0.00000   74.60160   74.60160  140.60940  140.60940   25.30000    0.10120    0.04130    0.04130    0.04170    0.04170    2.58440    2.58450    2.98800    0.02060   96.98260
 3586.42910    9.03500    0.00000   73.66250   73.66250  135.18240  135.18240   20.58800    0.08780    0.01870    0.01870    0.01870    0.01870    2.62050    2.62070    3.51200    0.02060   96.98690
 3586.58150    9.01100    0.00000   72.50340   72.50340  132.70620  132.70620   20.17600    0.08520    0.01000    0.01000    0.01000    0.01000    2.63790    2.63800    4.04100    0.02060   96.99110
 3586.73390    9.02300    0.00000   71.14230   71.14230  131.44380  131.44380   19.51000    0.09010    0.02790    0.02790    0.02790    0.02790    2.60610    2.60600    4.34000    0.02060   96.99530
 3586.88630    9.03500    0.00000   69.62840   69.62840  131.13730  131.13730   19.85700    0.09280    0.02610    0.02610    0.02610    0.02610    2.60900    2.60900    4.38400    0.02060   96.99960
 3587.03870    9.02900    0.00000   68.22960   68.22960  131.56140  131.56140   21.88200    0.08320    0.02990    0.02990    0.02990    0.02990    2.60300    2.60300    4.36200    0.02060   97.00380
 3587.19110    9.00500    0.00000   67.35600   67.35600  132.22410  132.22410   22.07700    0.09060    0.01980    0.01980    0.01980    0.01980    2.61890    2.61900    4.37300    0.02060   97.00800
 3587.34350    8.99300    0.00000   67.24930   67.24930  133.84320  133.84320   23.97700    0.09680    0.02860    0.02860    0.02860    0.02860    2.60510    2.60500    4.29500    0.02060   97.01230
