~Version ---------------------------------------------------
VERS.   2.0 : CWLS log ASCII Standard -VERSION 2.0
WRAP.    NO : One line per depth step
DLM . SPACE : Column Data Section Delimiter
~Well ------------------------------------------------------
STRT.m           3500.0183 : START DEPTH
STOP.m           4124.8583 : STOP DEPTH
STEP.m 0.15239999999994325 : STEP
NULL.             -9999.25 : NULL VALUE
COMP.                      : COMPANY
WELL.          Random Well : 
FLD .         Random Field : 
LOC .                      : LOCATION
PROV.                      : PROVINCE
CNTY.                      : COUNTY
STAT.                      : STATE
CTRY.                      : COUNTRY
SRVC.                      : SERVICE COMPANY
DATE.                      : DATE
UWI .             12345678 : 
API .                      : API NUMBER
~Curve Information -----------------------------------------
DEPT    .m            : 
CALI    .inches       : 
COAL    .unitless     : 
DT      .us/ft        : 
DT_LOG  .us/ft        : 
DTS     .us/ft        : 
DTS_LOG .us/ft        : 
GR      .API          : 
NPHI    .v/v_decimal  : 
PHIE    .v/v_decimal  : 
PHIEC   .v/v_decimal  : 
PHIT    .v/v_decimal  : 
PHITC   .v/v_decimal  : 
RHOB    .g/cm3        : 
RHOB_LOG.g/cm3        : 
RT      .ohm.m        : 
RW      .ohm.m        : 
TEMP    .degC         : 
~Params ----------------------------------------------------
~Other -----------------------------------------------------
~ASCII -----------------------------------------------------
# ...
 4049.87750    8.31400    0.00000   71.86800   71.86800  127.68210  127.68210   74.26200    0.17480    0.07990    0.07800    0.08540    0.08340    2.51520    2.51500    2.00000    0.01860  109.86610
 4050.02990    8.05500    0.00000   71.86590   71.86590  128.56210  128.56210   63.64400    0.21670    0.12030    0.11310    0.12590    0.11860    2.45130    2.45100    1.89100    0.01860  109.87030
 4050.18230    8.02500    0.00000   71.71600   71.71600  129.80410  129.80410   59.52800    0.20770    0.10930    0.10410    0.11470    0.10950    2.46890    2.46900    1.77300    0.01860  109.87460
 4050.33470    7.99500    0.00000   71.81430   71.81430  131.08900  131.08900   52.90600    0.21270    0.14210    0.13380    0.14610    0.13780    2.41920    2.41900    1.66400    0.01860  109.87880
 4050.48710    8.12100    0.00000   72.52350   72.52350  131.45100  131.45100   56.82600    0.25530    0.13710    0.12920    0.14190    0.13400    2.42600    2.42600    1.57600    0.01860  109.88300
 4050.63950    8.07900    0.00000   73.70750   73.70750  131.02390  131.02390   52.53100    0.23370    0.15120    0.14220    0.15510    0.14610    2.40510    2.40500    1.52300    0.01860  109.88730
 4050.79190    8.09100    0.00000   74.83430   74.83430  129.37390  129.37390   57.87500    0.18690    0.13900    0.13230    0.14250    0.13580    2.42490    2.42500    1.51700    0.01860  109.89150
 4050.94430    7.93500    0.00000   75.49310   75.49310  128.17190  128.17190   59.05700    0.18600    0.12920    0.12340    0.13300    0.12730    2.43990    2.44000    1.55600    0.01860  109.89570
 4051.09670    7.89300    0.00000   75.69200   75.69200  126.98700  126.98700   55.42500    0.20690    0.11970    0.11460    0.12410    0.11900    2.45390    2.45400    1.61400    0.01860  109.90000
 4051.24910    7.84500    0.00000   75.61790   75.61790  126.70900  126.70900   58.15000    0.21830    0.12300    0.11660    0.12790    0.12150    2.44800    2.44800    1.66900    0.01860  109.90420
 4051.40150    8.06700    0.00000   75.28670   75.28670  126.74100  126.74100   61.10200    0.20550    0.13760    0.12940    0.14180    0.13360    2.42610    2.42600    1.71900    0.01860  109.90840
 4051.55390    8.04900    0.00000   74.62360   74.62360  126.90600  126.90600   67.80300    0.18690    0.10430    0.10030    0.10900    0.10500    2.47780    2.47800    1.77600    0.01860  109.91270
 4051.70630    8.04900    0.00000   73.73060   73.73060  126.63900  126.63900   63.86300    0.19100    0.11780    0.11200    0.12220    0.11630    2.45710    2.45700    1.83600    0.01860  109.91690
 4051.85870    8.48200    0.00000   72.92180   72.92180  126.80100  126.80100   60.64600    0.21860    0.12330    0.11570    0.12850    0.12090    2.44700    2.44700    1.88700    0.01860  109.92120
 4052.01110    8.51200    0.00000   72.51800   72.51800  126.99600  126.99600   60.79400    0.17590    0.12110    0.11510    0.12480    0.11870    2.45300    2.45300    1.91800    0.01860  109.92540
 4052.16350    8.46400    0.00000   72.60620   72.60620  127.18500  127.18500   61.88800    0.19300    0.10740    0.10220    0.11210    0.10700    2.47290    2.47300    1.94000    0.01860  109.92960
 4052.31590    8.48200    0.00000   72.96910   72.96910  127.17400  127.17400   61.59500    0.19810    0.11110    0.10530    0.11590    0.11010    2.46700    2.46700    1.96100    0.01860  109.93390
 4052.46830    8.45800    0.00000   73.26200   73.26200  127.14700  127.14700   61.95000    0.16890    0.10960    0.10500    0.11340    0.10870    2.47100    2.47100    1.97300    0.01860  109.93810
 4052.62070    8.42800    0.00000   73.28890   73.28890  126.89900  126.89900   60.13800    0.16910    0.13650    0.12860    0.13920    0.13130    2.43020    2.43000    1.96800    0.01860  109.94230
 4052.77310    8.42800    0.00000   73.08290   73.08290  126.95000  126.95000   61.50700    0.17830    0.12380    0.11730    0.12730    0.12080    2.44890    2.44900    1.95200    0.01860  109.94660
 4052.92550    8.40400    0.00000   72.76690   72.76690  127.01800  127.01800   61.17500    0.17630    0.11470    0.10940    0.11840    0.11310    2.46290    2.46300    1.93200    0.01860  109.95080
 4053.07790    8.38600    0.00000   72.42680   72.42680  127.00600  127.00600   67.17200    0.18060    0.08970    0.08690    0.09440    0.09170    2.50080    2.50100    1.91100    0.01860  109.95500
 4053.23030    8.42800    0.00000   72.06080   72.06080  126.94500  126.94500   65.76700    0.18750    0.10500    0.10050    0.10950    0.10490    2.47710    2.47700    1.89300    0.01860  109.95930
 4053.38270    8.38600    0.00000   71.64780   71.64780  126.68200  126.68200   71.67700    0.16720    0.11500    0.11020    0.11840    0.11350    2.46310    2.46300    1.88200    0.01860  109.96350
 4053.53510    8.39200    0.00000   71.28800   71.28800  127.04000  127.04000   68.53700    0.19910    0.10540    0.10050    0.11020    0.10530    2.47590    2.47600    1.87500    0.01860  109.96770
 4053.68750    8.57800    0.00000   71.23220   71.23220  127.46500  127.46500   72.60000    0.19260    0.09780    0.09390    0.10260    0.09870    2.48800    2.48800    1.87200    0.01860  109.97200
 4053.83990    8.56600    0.00000   71.64930   71.64930  127.70000  127.70000   71.94900    0.16830    0.09150    0.08920    0.09560    0.09330    2.49900    2.49900    1.87100    0.01860  109.97620
 4053.99230    8.59000    0.00000   72.38730   72.38730  127.38800  127.38800   71.68200    0.16920    0.09470    0.09210    0.09880    0.09610    2.49400    2.49400    1.86100    0.01860  109.98040
 4054.14470    8.43400    0.00000   73.12420   73.12420  127.54400  127.54400   72.02500    0.18720    0.06150    0.06100    0.06720    0.06670    2.54380    2.54400    1.82700    0.01860  109.98470
 4054.29710    8.43400    0.00000   73.66120   73.66120  127.97010  127.97010   65.95500    0.17960    0.03990    0.03990    0.04570    0.04570    2.57790    2.57800    1.76900    0.01860  109.98890
 4054.44950    8.42200    0.00000   74.02110   74.02110  128.70700  128.70700   77.08400    0.17830    0.08510    0.08360    0.08970    0.08820    2.50830    2.50800    1.70900    0.01860  109.99320
 4054.60190    8.10900    0.00000   74.33410   74.33410  129.09000  129.09000   73.85400    0.18790    0.15150    0.14240    0.15420    0.14510    2.40640    2.40600    1.68100    0.01860  109.99740
 4054.75430    8.12100    0.00000   74.62810   74.62810  129.11600  129.11600   69.09800    0.21880    0.17220    0.15940    0.17530    0.16250    2.37310    2.37300    1.69900    0.01860  110.00160
 4054.90670    8.12100    0.00000   74.80500   74.80500  129.00000  129.00000   68.64600    0.19250    0.13540    0.12780    0.13880    0.13120    2.43080    2.43100    1.74800    0.01860  110.00590
 4055.05910    8.50000    0.00000   74.88010   74.88010  128.84600  128.84600   71.99600    0.21390    0.13590    0.12730    0.13990    0.13140    2.42900    2.42900    1.80200    0.01860  110.01010
 4055.21150    8.53000    0.00000   75.04520   75.04520  128.66000  128.66000   69.84600    0.19690    0.12220    0.11560    0.12610    0.11950    2.45090    2.45100    1.83600    0.01860  110.01430
 4055.36390    8.58400    0.00000   75.42720   75.42720  128.29700  128.29700   68.03500    0.19530    0.11890    0.11280    0.12280    0.11680    2.45600    2.45600    1.82600    0.01860  110.01860
 4055.51630    8.60200    0.00000   75.91820   75.91820  127.72300  127.72300   68.74300    0.19160    0.13410    0.12660    0.13670    0.12920    2.43410    2.43400    1.76700    0.01860  110.02280
 4055.66870    8.65000    0.00000   76.29110   76.29110  127.38700  127.38700   76.21400    0.19890    0.11830    0.11270    0.12160    0.11600    2.45790    2.45800    1.69500    0.01860  110.02700
 4055.82110    8.28400    0.00000   76.40290   76.40290  127.48300  127.48300   73.31300    0.18520    0.12710    0.12110    0.12980    0.12380    2.44510    2.44500    1.65800    0.01860  110.03130
 4055.97350    8.27800    0.00000   76.29190   76.29190  127.69200  127.69200   70.70700    0.20040    0.10920    0.10460    0.11280    0.10820    2.47190    2.47200    1.67100    0.01860  110.03550
